[
  {
    "building_id": 16,
    "name": "ЖК Панорама на Печерске",
    "address": "ул. Евгения Коновальца (Щорса), 44а",
    "latitude": 50.42257680223414,
    "longitude": 30.537777842962377,
    "image_url": "https://img.lun.ua/building-1600x1200/2708.jpg"
  },
  {
    "building_id": 17,
    "name": "ЖК Времена Года",
    "address": "ул. Кудряшова, 14, 16, 18, 20, 20б, 20г",
    "latitude": 50.43031004702142,
    "longitude": 30.48630638794537,
    "image_url": "https://img.lun.ua/building-1600x1200/2712.jpg"
  },
  {
    "building_id": 18,
    "name": "ЖК Golden Park",
    "address": "ул. Парково-Сырецкая (Тимофея Шамрыло), 4б",
    "latitude": 50.46408945170423,
    "longitude": 30.438550510343703,
    "image_url": "https://img.lun.ua/building-1600x1200/2726.jpg"
  },
  {
    "building_id": 19,
    "name": "ЖК Изумрудный",
    "address": "ул. Генерала Шаповала (Механизаторов), 2",
    "latitude": 50.430436880123,
    "longitude": 30.484166425131,
    "image_url": "https://img.lun.ua/building-1600x1200/5057.jpg"
  },
  {
    "building_id": 20,
    "name": "ЖК Паркове місто",
    "address": "ул. Вышгородская, 45а/2, 45а/4, 45а/5, 45а/6, 45б/1, 45б/3, 45б/4",
    "latitude": 50.509893760884765,
    "longitude": 30.44802836574557,
    "image_url": "https://img.lun.ua/building-1600x1200/29458.png"
  },
  {
    "building_id": 22,
    "name": "ЖК Престиж Холл",
    "address": "ул. Анри Барбюса, 37/1",
    "latitude": 50.421248533292,
    "longitude": 30.526252195106,
    "image_url": "https://img.lun.ua/building-1600x1200/2731.jpg"
  },
  {
    "building_id": 23,
    "name": "ЖК Авиатор",
    "address": "просп. Космонавта Комарова, 22-28",
    "latitude": 50.439334743443766,
    "longitude": 30.42178798084259,
    "image_url": "https://img.lun.ua/building-1600x1200/23450.jpg"
  },
  {
    "building_id": 24,
    "name": "ЖК Триумф",
    "address": "ул. Зверинецкая, 59",
    "latitude": 50.407525213349,
    "longitude": 30.555207598954,
    "image_url": "https://img.lun.ua/building-1600x1200/4053.jpg"
  },
  {
    "building_id": 25,
    "name": "ЖК Сонячна брама",
    "address": "ул. Ломоносова, 73-79",
    "latitude": 50.385762552651,
    "longitude": 30.473251763139,
    "image_url": "https://img.lun.ua/building-1600x1200/21604.jpg"
  },
  {
    "building_id": 28,
    "name": "ЖК 4 сезона",
    "address": "ул. Михаила Максимовича (Трутенко), 3г",
    "latitude": 50.390913646154,
    "longitude": 30.479942315385,
    "image_url": "https://img.lun.ua/building-1600x1200/21795.jpg"
  },
  {
    "building_id": 30,
    "name": "ЖК Botanic Paradise",
    "address": "ул. Назаровская (Ветрова), 23",
    "latitude": 50.4436864468,
    "longitude": 30.49931530955,
    "image_url": "https://img.lun.ua/building-1600x1200/2745.jpg"
  },
  {
    "building_id": 35,
    "name": "ЖК Новопечерские Липки",
    "address": "ул. Михаила Драгомирова, 1, 3, 5, 12, 14, 16б, 18а, 20а",
    "latitude": 50.411472918135,
    "longitude": 30.545440520524,
    "image_url": "https://img.lun.ua/building-1600x1200/24105.jpg"
  },
  {
    "building_id": 36,
    "name": "ЖК Park Avenue VIP",
    "address": "просп. Голосеевский, 58а",
    "latitude": 50.40117345789475,
    "longitude": 30.512080489473682,
    "image_url": "https://img.lun.ua/building-1600x1200/28388.jpg"
  },
  {
    "building_id": 39,
    "name": "ЖК Печерский квартал",
    "address": "бул. Дружбы Народов, 14-16",
    "latitude": 50.413656140533,
    "longitude": 30.539352387421,
    "image_url": "https://img.lun.ua/building-1600x1200/2746.jpg"
  },
  {
    "building_id": 41,
    "name": "ЖК Покровский посад",
    "address": "ул. Глубочицкая, 32а, 32б, 32в",
    "latitude": 50.461923725323,
    "longitude": 30.493509639055,
    "image_url": "https://img.lun.ua/building-1600x1200/4984.jpg"
  },
  {
    "building_id": 42,
    "name": "ЖК Приозерный",
    "address": "ул. Здолбуновская, 11в",
    "latitude": 50.41477110895807,
    "longitude": 30.621060104557046,
    "image_url": "https://img.lun.ua/building-1600x1200/2563.jpg"
  },
  {
    "building_id": 45,
    "name": "ЖК Парковые озера",
    "address": "ул. Воскресенская, 12а, 12б, 12в, 12г, 14б, 14д, 14е, 16б, 16в, 16г",
    "latitude": 50.466556423022,
    "longitude": 30.602926981814,
    "image_url": "https://img.lun.ua/building-1600x1200/4867.jpg"
  },
  {
    "building_id": 47,
    "name": "ЖК Александровский",
    "address": "просп. Валерия Лобановского (Краснозвездный), 4а, 4б, 4в, 4г",
    "latitude": 50.42254722575069,
    "longitude": 30.462656506883583,
    "image_url": "https://img.lun.ua/building-1600x1200/2752.jpg"
  },
  {
    "building_id": 49,
    "name": "ЖК Виктория",
    "address": "просп. Победы, 119-121",
    "latitude": 50.454801583333335,
    "longitude": 30.36112784166667,
    "image_url": "https://img.lun.ua/building-1600x1200/2755.jpg"
  },
  {
    "building_id": 50,
    "name": "ЖК Воскресенский",
    "address": "ул. Петра Запорожца, 26а",
    "latitude": 50.479575217074,
    "longitude": 30.604247493265575,
    "image_url": "https://img.lun.ua/building-1600x1200/4272.jpg"
  },
  {
    "building_id": 51,
    "name": "ЖК Парковый",
    "address": "бул. Кольцова, 14",
    "latitude": 50.42382033333333,
    "longitude": 30.382027893333333,
    "image_url": "https://img.lun.ua/building-1600x1200/2777.jpg"
  },
  {
    "building_id": 52,
    "name": "ЖК Голосеево",
    "address": "ул. Голосеевская, 13, 13а, 13б",
    "latitude": 50.3996566390446,
    "longitude": 30.521005716949457,
    "image_url": "https://img.lun.ua/building-1600x1200/2784.jpg"
  },
  {
    "building_id": 53,
    "name": "ЖК Ривьера Риверсайд",
    "address": "ул. Раисы Окипной, 18",
    "latitude": 50.447450058403824,
    "longitude": 30.589288947082483,
    "image_url": "https://img.lun.ua/building-1600x1200/4058.jpg"
  },
  {
    "building_id": 55,
    "name": "ЖК Альпийский городок",
    "address": "ул. Протасов Яр, 8",
    "latitude": 50.42711448676518,
    "longitude": 30.499635199812474,
    "image_url": "https://img.lun.ua/building-1600x1200/4063.jpg"
  },
  {
    "building_id": 56,
    "name": "ЖК Перлина Кадетського Гаю",
    "address": "ул. Эрнста Федора, 16",
    "latitude": 50.415962425872316,
    "longitude": 30.46370644583887,
    "image_url": "https://img.lun.ua/building-1600x1200/2791.jpg"
  },
  {
    "building_id": 59,
    "name": "",
    "address": "просп. Героев Сталинграда, 2",
    "latitude": 50.490854893791465,
    "longitude": 30.527974028465444,
    "image_url": "https://img.lun.ua/building-1600x1200/4292.jpg"
  },
  {
    "building_id": 60,
    "name": "ЖК Лико-Град 3",
    "address": "ул. Ломоносова",
    "latitude": 50.3862471294059,
    "longitude": 30.466693288520673,
    "image_url": "https://img.lun.ua/building-1600x1200/2801.jpg"
  },
  {
    "building_id": 61,
    "name": "",
    "address": "ул. Гашека, 8а",
    "latitude": 50.435900449395874,
    "longitude": 30.628070949999938,
    "image_url": "https://img.lun.ua/building-1600x1200/35706.jpg"
  },
  {
    "building_id": 63,
    "name": "",
    "address": "ул. Тычины, 18б",
    "latitude": 50.42768179850865,
    "longitude": 30.603319201049807,
    "image_url": "https://img.lun.ua/building-1600x1200/22429.jpg"
  },
  {
    "building_id": 64,
    "name": "",
    "address": "ул. Урицкого, 18, 18в",
    "latitude": 50.43393838310511,
    "longitude": 30.48412764712145,
    "image_url": "https://img.lun.ua/building-1600x1200/2810.jpg"
  },
  {
    "building_id": 65,
    "name": "",
    "address": "ул. Княжий Затон, 9",
    "latitude": 50.402030731801375,
    "longitude": 30.624979239425613,
    "image_url": "https://img.lun.ua/building-1600x1200/2815.jpg"
  },
  {
    "building_id": 67,
    "name": "ЖК Silver Breeze",
    "address": "Днепровская набережная, 1, 1а, 1б",
    "latitude": 50.42830433868702,
    "longitude": 30.594531186514814,
    "image_url": "https://img.lun.ua/building-1600x1200/4307.jpg"
  },
  {
    "building_id": 68,
    "name": "ЖК Жемчужина Нивок",
    "address": "ул. Данила Щербакивского (Щербакова), 52",
    "latitude": 50.470647005,
    "longitude": 30.406437725,
    "image_url": "https://img.lun.ua/building-1600x1200/4308.jpg"
  },
  {
    "building_id": 70,
    "name": "ЖК Мега-сити",
    "address": "Харьковское шоссе, 19",
    "latitude": 50.43150758824253,
    "longitude": 30.634988628311152,
    "image_url": "https://img.lun.ua/building-1600x1200/2566.jpg"
  },
  {
    "building_id": 71,
    "name": "",
    "address": "ул. Николая Голего (Лебедева-Кумача), 7в",
    "latitude": 50.438807778580006,
    "longitude": 30.438174403427098,
    "image_url": "https://img.lun.ua/building-1600x1200/2816.jpg"
  },
  {
    "building_id": 72,
    "name": "",
    "address": "просп. Правды, 80-82",
    "latitude": 50.5059415263475,
    "longitude": 30.418115375671363,
    "image_url": "https://img.lun.ua/building-1600x1200/2820.jpg"
  },
  {
    "building_id": 74,
    "name": "ЖК PecherSKY",
    "address": "бул. Дружбы Народов, 40 / ул. Болсуновская (Струтинского), 2",
    "latitude": 50.421239319372226,
    "longitude": 30.552816541037714,
    "image_url": "https://img.lun.ua/building-1600x1200/5405.jpg"
  },
  {
    "building_id": 78,
    "name": "ЖК Три Богатыря",
    "address": "ул. Борщаговская, 182в",
    "latitude": 50.44366535533737,
    "longitude": 30.437015881743378,
    "image_url": "https://img.lun.ua/building-1600x1200/4315.jpg"
  },
  {
    "building_id": 80,
    "name": "",
    "address": "ул. Елизаветы Чавдар, 1",
    "latitude": 50.39368871231586,
    "longitude": 30.618281830688442,
    "image_url": "https://img.lun.ua/building-1600x1200/2823.jpg"
  },
  {
    "building_id": 81,
    "name": "",
    "address": "ул. Петра Калнышевского (Михаила Майорова), 7 (5а)",
    "latitude": 50.521863801730404,
    "longitude": 30.463768185180697,
    "image_url": "https://img.lun.ua/building-1600x1200/2825.jpg"
  },
  {
    "building_id": 82,
    "name": "ЖК Ново-Демеевский",
    "address": "просп. Валерия Лобановского (Краснозвездный), 150-162",
    "latitude": 50.4068211758022,
    "longitude": 30.50902584496389,
    "image_url": "https://img.lun.ua/building-1600x1200/2826.jpg"
  },
  {
    "building_id": 84,
    "name": "",
    "address": "ул. Крамского, 9",
    "latitude": 50.45344845,
    "longitude": 30.372688450000002,
    "image_url": "https://img.lun.ua/building-1600x1200/2830.jpg"
  },
  {
    "building_id": 87,
    "name": "ЖК Henesi House",
    "address": "ул. Нагорная, 18/16",
    "latitude": 50.473061378907936,
    "longitude": 30.482147494331002,
    "image_url": "https://img.lun.ua/building-1600x1200/21569.jpg"
  },
  {
    "building_id": 88,
    "name": "",
    "address": "ул. Львовская, 26а",
    "latitude": 50.45495254865507,
    "longitude": 30.372754474868714,
    "image_url": "https://img.lun.ua/building-1600x1200/4244.jpg"
  },
  {
    "building_id": 91,
    "name": "ЖК Дом на Пчелки",
    "address": "ул. Елены Пчелки, 4, 4а",
    "latitude": 50.41635200680179,
    "longitude": 30.629168098147538,
    "image_url": "https://img.lun.ua/building-1600x1200/2837.jpg"
  },
  {
    "building_id": 93,
    "name": "",
    "address": "ул. Урловская, 36",
    "latitude": 50.410657745905056,
    "longitude": 30.616714163462348,
    "image_url": "https://img.lun.ua/building-1600x1200/2838.jpg"
  },
  {
    "building_id": 108,
    "name": "",
    "address": "ул. Ахматовой, 30 (стройпл. 7, Позняки-2)",
    "latitude": 50.40816062194602,
    "longitude": 30.623019828747374,
    "image_url": "https://img.lun.ua/building-1600x1200/4636.jpg"
  },
  {
    "building_id": 110,
    "name": "ЖК Зеленый Мыс",
    "address": "ул. Генерала Наумова, 66",
    "latitude": 50.47076836085973,
    "longitude": 30.329698186508182,
    "image_url": "https://img.lun.ua/building-1600x1200/2840.jpg"
  },
  {
    "building_id": 120,
    "name": "",
    "address": "ул. Днепровская набережная, 19, 19а, 19в, 23, 25",
    "latitude": 50.407135456475,
    "longitude": 30.613294355571,
    "image_url": "https://img.lun.ua/building-1600x1200/2842.jpg"
  },
  {
    "building_id": 143,
    "name": "ЖК Комфорт Таун",
    "address": "ул. Регенераторная, 4",
    "latitude": 50.438021593753,
    "longitude": 30.620627526866,
    "image_url": "https://img.lun.ua/building-1600x1200/5778.jpg"
  },
  {
    "building_id": 165,
    "name": "ЖК Троещина",
    "address": "ул. Николая Лаврухина, 11, 12, 13, 14",
    "latitude": 50.518061644051,
    "longitude": 30.598089008459,
    "image_url": "https://img.lun.ua/building-1600x1200/2856.jpg"
  },
  {
    "building_id": 167,
    "name": "",
    "address": "ул. Гмыри, 6",
    "latitude": 50.393165,
    "longitude": 30.626928,
    "image_url": "https://img.lun.ua/building-1600x1200/2861.jpg"
  },
  {
    "building_id": 174,
    "name": "",
    "address": "ул. Антоновича (Горького), 72",
    "latitude": 50.42667050010239,
    "longitude": 30.513879652778627,
    "image_url": "https://img.lun.ua/building-1600x1200/2862.jpg"
  },
  {
    "building_id": 180,
    "name": "ЖК Jardan Le Roi",
    "address": "ул. Гастелло, 10",
    "latitude": 50.40978132000001,
    "longitude": 30.556891459999996,
    "image_url": "https://img.lun.ua/building-1600x1200/2863.jpg"
  },
  {
    "building_id": 182,
    "name": "ЖК Лазурный блюз",
    "address": "ул. Туманяна, 15а",
    "latitude": 50.44387445512174,
    "longitude": 30.604766271513846,
    "image_url": "https://img.lun.ua/building-1600x1200/2866.jpg"
  },
  {
    "building_id": 184,
    "name": "",
    "address": "ул. Елизаветы Чавдар, 3, 5, 7, 9",
    "latitude": 50.393930281172,
    "longitude": 30.621336568147,
    "image_url": "https://img.lun.ua/building-1600x1200/2868.jpg"
  },
  {
    "building_id": 186,
    "name": "",
    "address": "ул. Каунасская, 2а",
    "latitude": 50.438929905467,
    "longitude": 30.623141247779,
    "image_url": "https://img.lun.ua/building-1600x1200/4316.jpg"
  },
  {
    "building_id": 187,
    "name": "",
    "address": "ул. Богдана Хмельницкого, 58а",
    "latitude": 50.448094414121364,
    "longitude": 30.50536172023769,
    "image_url": "https://img.lun.ua/building-1600x1200/4322.jpg"
  },
  {
    "building_id": 197,
    "name": "ЖК Тридцать восьмая жемчужина",
    "address": "ул. Жилянская, 68",
    "latitude": 50.43656812241047,
    "longitude": 30.503355721011758,
    "image_url": "https://img.lun.ua/building-1600x1200/21198.jpg"
  },
  {
    "building_id": 199,
    "name": "",
    "address": "ул. Урловская, 40",
    "latitude": 50.41158043242967,
    "longitude": 30.61519599999999,
    "image_url": "https://img.lun.ua/building-1600x1200/2875.jpg"
  },
  {
    "building_id": 202,
    "name": "",
    "address": "ул. Урловская, 34а",
    "latitude": 50.41015439486262,
    "longitude": 30.617618730629374,
    "image_url": "https://img.lun.ua/building-1600x1200/2884.jpg"
  },
  {
    "building_id": 216,
    "name": "",
    "address": "ул. Урловская, 30",
    "latitude": 50.409479859200566,
    "longitude": 30.618627437326033,
    "image_url": "https://img.lun.ua/building-1600x1200/2886.jpg"
  },
  {
    "building_id": 219,
    "name": "ЖК Ново-Никольский",
    "address": "просп. Леся Курбаса, 7-7а",
    "latitude": 50.42612417966764,
    "longitude": 30.382030908673944,
    "image_url": "https://img.lun.ua/building-1600x1200/2887.jpg"
  },
  {
    "building_id": 221,
    "name": "",
    "address": "ул. Урловская, 38 (стройпл. 4, Позняки-2)",
    "latitude": 50.411625744718,
    "longitude": 30.616483950173,
    "image_url": "https://img.lun.ua/building-1600x1200/2888.jpg"
  },
  {
    "building_id": 222,
    "name": "",
    "address": "ул. Урловская (стройпл. 4в, Позняки-2)",
    "latitude": 50.410882733333345,
    "longitude": 30.618953345833336,
    "image_url": "https://img.lun.ua/building-1600x1200/2891.jpg"
  },
  {
    "building_id": 224,
    "name": "",
    "address": "ул. Януша Корчака (Баумана), 25",
    "latitude": 50.46733651111111,
    "longitude": 30.41687388888889,
    "image_url": "https://img.lun.ua/building-1600x1200/2896.jpg"
  },
  {
    "building_id": 228,
    "name": "",
    "address": "ул. Борщаговская, 208",
    "latitude": 50.44253527630987,
    "longitude": 30.435132279497566,
    "image_url": "https://img.lun.ua/building-1600x1200/4324.jpg"
  },
  {
    "building_id": 234,
    "name": "",
    "address": "ул. Соломенская, 15а",
    "latitude": 50.42459132349428,
    "longitude": 30.47867825531445,
    "image_url": "https://img.lun.ua/building-1600x1200/2897.jpg"
  },
  {
    "building_id": 243,
    "name": "",
    "address": "пер. Моторный, 9, 9а",
    "latitude": 50.376629379757,
    "longitude": 30.540554413466,
    "image_url": "https://img.lun.ua/building-1600x1200/4328.jpg"
  },
  {
    "building_id": 244,
    "name": "",
    "address": "просп. Науки, 80а/73",
    "latitude": 50.37533381428572,
    "longitude": 30.539412671428575,
    "image_url": "https://img.lun.ua/building-1600x1200/23923.jpg"
  },
  {
    "building_id": 246,
    "name": "",
    "address": "ул. Евгения Харченка (Ленина), 47-59",
    "latitude": 50.38234142700315,
    "longitude": 30.699327243022708,
    "image_url": "https://img.lun.ua/building-1600x1200/18060.jpg"
  },
  {
    "building_id": 256,
    "name": "ЖК Молодежный квартал",
    "address": "ул. Ващенко, 1, 3, 5, 7, ул. Елизаветы Чавдар, 2, 4, 6, 8, 14, 18, 22, 24",
    "latitude": 50.390647896020674,
    "longitude": 30.623686165668552,
    "image_url": "https://img.lun.ua/building-1600x1200/4335.jpg"
  },
  {
    "building_id": 267,
    "name": "ЖК Затишний",
    "address": "ул. Степана Руданского, 3, 3а",
    "latitude": 50.468044899999995,
    "longitude": 30.430799875,
    "image_url": "https://img.lun.ua/building-1600x1200/2568.jpg"
  },
  {
    "building_id": 271,
    "name": "ЖК Вертикаль",
    "address": "пер. Ковальский, 19",
    "latitude": 50.44695106597709,
    "longitude": 30.448858547142095,
    "image_url": "https://img.lun.ua/building-1600x1200/2902.jpg"
  },
  {
    "building_id": 276,
    "name": "ЖК Richmond",
    "address": "ул. Джона Маккейна (Ивана Кудри), 26",
    "latitude": 50.418314780901845,
    "longitude": 30.539445597678423,
    "image_url": "https://img.lun.ua/building-1600x1200/27156.jpg"
  },
  {
    "building_id": 277,
    "name": "ЖК Шулявский",
    "address": "пер. Машиностроительный, 26",
    "latitude": 50.44906513350417,
    "longitude": 30.435979110673543,
    "image_url": "https://img.lun.ua/building-1600x1200/32352.jpg"
  },
  {
    "building_id": 278,
    "name": "ЖК Срібна Вежа",
    "address": "ул. Белорусская, 36а",
    "latitude": 50.46571696363637,
    "longitude": 30.47309499090909,
    "image_url": "https://img.lun.ua/building-1600x1200/4344.jpg"
  },
  {
    "building_id": 282,
    "name": "",
    "address": "ул. Инженера Бородина (Лазо), 4-6",
    "latitude": 50.448256096212745,
    "longitude": 30.671727721555612,
    "image_url": "https://img.lun.ua/building-1600x1200/2909.jpg"
  },
  {
    "building_id": 287,
    "name": "ЖК Виноградный (Синеозёрный)",
    "address": "просп. Правды, 102",
    "latitude": 50.507966094945516,
    "longitude": 30.407266540227692,
    "image_url": "https://img.lun.ua/building-1600x1200/2580.jpg"
  },
  {
    "building_id": 315,
    "name": "ЖК Сосновый бор",
    "address": "ул. Олевская, 3, 15, 17 / ул. Бахмачская, 20",
    "latitude": 50.47927323571428,
    "longitude": 30.344332921428578,
    "image_url": "https://img.lun.ua/building-1600x1200/2588.jpg"
  },
  {
    "building_id": 319,
    "name": "",
    "address": "ул. Козацкая, 112-114",
    "latitude": 50.398646,
    "longitude": 30.498077999999964,
    "image_url": "https://img.lun.ua/building-1600x1200/2913.jpg"
  },
  {
    "building_id": 321,
    "name": "",
    "address": "просп. Правды, 5",
    "latitude": 50.50485788571429,
    "longitude": 30.44765665238095,
    "image_url": "https://img.lun.ua/building-1600x1200/2916.jpg"
  },
  {
    "building_id": 322,
    "name": "",
    "address": "ул. Автозаводская, 29а",
    "latitude": 50.50811215538819,
    "longitude": 30.457470839286763,
    "image_url": "https://img.lun.ua/building-1600x1200/2917.jpg"
  },
  {
    "building_id": 323,
    "name": "",
    "address": "бул. Леси Украинки, 7б",
    "latitude": 50.43283716838143,
    "longitude": 30.534036052807778,
    "image_url": "https://img.lun.ua/building-1600x1200/17748.jpg"
  },
  {
    "building_id": 324,
    "name": "ЖК Ревуцкого, 9",
    "address": "ул. Ревуцкого, 9",
    "latitude": 50.419213956217,
    "longitude": 30.642685588449,
    "image_url": "https://img.lun.ua/building-1600x1200/5087.jpg"
  },
  {
    "building_id": 335,
    "name": "ЖК Васильковский",
    "address": "пер. Коломиевский, 17/31",
    "latitude": 50.39351955276762,
    "longitude": 30.49117915212321,
    "image_url": "https://img.lun.ua/building-1600x1200/2925.jpg"
  },
  {
    "building_id": 336,
    "name": "",
    "address": "просп. Маяковского, 1-3",
    "latitude": 50.497498562157,
    "longitude": 30.582936443388,
    "image_url": "https://img.lun.ua/building-1600x1200/2938.jpg"
  },
  {
    "building_id": 337,
    "name": "ЖК Милославичи",
    "address": "ул. Закревского, 95, 97, 97а, ул. Милославская, 11, 13, 14",
    "latitude": 50.529369159296,
    "longitude": 30.626343377363,
    "image_url": "https://img.lun.ua/building-1600x1200/4076.jpg"
  },
  {
    "building_id": 340,
    "name": "ЖК Перовский",
    "address": "бул. Перова, 10а, ул. Алишера Навои, 69",
    "latitude": 50.47155686498633,
    "longitude": 30.599377385488886,
    "image_url": "https://img.lun.ua/building-1600x1200/4280.jpg"
  },
  {
    "building_id": 341,
    "name": "",
    "address": "ул. Алма-Атинская, 109б",
    "latitude": 50.45221912487071,
    "longitude": 30.68110207605745,
    "image_url": "https://img.lun.ua/building-1600x1200/2942.jpg"
  },
  {
    "building_id": 342,
    "name": "",
    "address": "ул. Красноткацкая, 43",
    "latitude": 50.4552274070129,
    "longitude": 30.63125678749998,
    "image_url": "https://img.lun.ua/building-1600x1200/2943.jpg"
  },
  {
    "building_id": 343,
    "name": "ЖК Элегант",
    "address": "ул. Жилянская, 118",
    "latitude": 50.441945833333335,
    "longitude": 30.496742,
    "image_url": "https://img.lun.ua/building-1600x1200/2944.jpg"
  },
  {
    "building_id": 344,
    "name": "Клубный Дом «На Мичурина»",
    "address": "ул. Мичурина, 61",
    "latitude": 50.422279583333335,
    "longitude": 30.563176266666662,
    "image_url": "https://img.lun.ua/building-1600x1200/2949.jpg"
  },
  {
    "building_id": 346,
    "name": "",
    "address": "ул. Десятинная, 11",
    "latitude": 50.457255149999995,
    "longitude": 30.5195334,
    "image_url": "https://img.lun.ua/building-1600x1200/2959.jpg"
  },
  {
    "building_id": 347,
    "name": "",
    "address": "ул. Вышгородская, 54б",
    "latitude": 50.518051133814446,
    "longitude": 30.451796424977488,
    "image_url": "https://img.lun.ua/building-1600x1200/2960.jpg"
  },
  {
    "building_id": 451,
    "name": "ЖК Санаторный",
    "address": "ул. Санаторная, 4",
    "latitude": 50.42976046655567,
    "longitude": 30.658576114086134,
    "image_url": "https://img.lun.ua/building-1600x1200/2962.jpg"
  },
  {
    "building_id": 452,
    "name": "",
    "address": "ул. Николая Краснова, 19",
    "latitude": 50.459990624999996,
    "longitude": 30.372595125,
    "image_url": "https://img.lun.ua/building-1600x1200/4349.jpg"
  },
  {
    "building_id": 453,
    "name": "ЖК Флагман",
    "address": "пер. Лобачевского, 7, 7а",
    "latitude": 50.4364775578762,
    "longitude": 30.63454740612787,
    "image_url": "https://img.lun.ua/building-1600x1200/2601.jpg"
  },
  {
    "building_id": 482,
    "name": "ЖК Crystal Park",
    "address": "просп. Победы, 42",
    "latitude": 50.455970914214426,
    "longitude": 30.45217577368021,
    "image_url": "https://img.lun.ua/building-1600x1200/4357.jpg"
  },
  {
    "building_id": 527,
    "name": "",
    "address": "ул. Дьяченко (Бортничи), 20, 20а, 20б, 20в",
    "latitude": 50.37972946475106,
    "longitude": 30.706342339950545,
    "image_url": "https://img.lun.ua/building-1600x1200/2966.jpg"
  },
  {
    "building_id": 529,
    "name": "",
    "address": "Харьковское шоссе, 58б",
    "latitude": 50.421949777901,
    "longitude": 30.6451424025,
    "image_url": "https://img.lun.ua/building-1600x1200/2968.jpg"
  },
  {
    "building_id": 531,
    "name": "ЖК Smart Plaza Polytech",
    "address": "просп. Победы, 26",
    "latitude": 50.45147712083334,
    "longitude": 30.468262895833323,
    "image_url": "https://img.lun.ua/building-1600x1200/5236.jpg"
  },
  {
    "building_id": 532,
    "name": "",
    "address": "ул. Максима Кривоноса, 17/8",
    "latitude": 50.424591517610565,
    "longitude": 30.471353330024705,
    "image_url": "https://img.lun.ua/building-1600x1200/4359.jpg"
  },
  {
    "building_id": 533,
    "name": "ЖК Адмирал",
    "address": "ул. Николая Ушакова, 1б, 1в, 1г",
    "latitude": 50.458876928382026,
    "longitude": 30.33773811534047,
    "image_url": "https://img.lun.ua/building-1600x1200/18570.jpg"
  },
  {
    "building_id": 539,
    "name": "ЖК НебоSky",
    "address": "ул. Закревского, 42а",
    "latitude": 50.52137129944552,
    "longitude": 30.630479629638625,
    "image_url": "https://img.lun.ua/building-1600x1200/2604.jpg"
  },
  {
    "building_id": 561,
    "name": "ЖК Липинка",
    "address": "ул. Замковецкая, 102, 102а, 102б, 104, 104а, 106, 106а, 106б, ул. Кавалеридзе, 1, 3, 5, 7, 9, 11, ул. Данченко, 2, 4, 6, 8, 10",
    "latitude": 50.495100481867,
    "longitude": 30.431032586843,
    "image_url": "https://img.lun.ua/building-1600x1200/35836.png"
  },
  {
    "building_id": 562,
    "name": "ЖК RiverStone",
    "address": "ул. Днепровская набережная, 14, 14а, 14б",
    "latitude": 50.402637776506374,
    "longitude": 30.614323994786997,
    "image_url": "https://img.lun.ua/building-1600x1200/17676.jpg"
  },
  {
    "building_id": 563,
    "name": "",
    "address": "ул. Ованеса Туманяна, 3",
    "latitude": 50.4463566375,
    "longitude": 30.601369587500002,
    "image_url": "https://img.lun.ua/building-1600x1200/2972.jpg"
  },
  {
    "building_id": 564,
    "name": "ЖК H-Tower",
    "address": "бул. Тараса Шевченко, 28-30",
    "latitude": 50.445189032216554,
    "longitude": 30.50488673660766,
    "image_url": "https://img.lun.ua/building-1600x1200/6267.jpg"
  },
  {
    "building_id": 581,
    "name": "",
    "address": "ул. Драгоманова, 6/1",
    "latitude": 50.41608509088248,
    "longitude": 30.634736252639755,
    "image_url": "https://img.lun.ua/building-1600x1200/2976.jpg"
  },
  {
    "building_id": 617,
    "name": "",
    "address": "ул. Радунская, 2/18",
    "latitude": 50.51872385,
    "longitude": 30.5957651,
    "image_url": "https://img.lun.ua/building-1600x1200/2977.jpg"
  },
  {
    "building_id": 623,
    "name": "ЖК Східна Брама",
    "address": "ул. Светлая, 3",
    "latitude": 50.39824503017543,
    "longitude": 30.692897123664856,
    "image_url": "https://img.lun.ua/building-1600x1200/2613.jpg"
  },
  {
    "building_id": 629,
    "name": "ЖК Diamond Hill",
    "address": "ул. Ивана Мазепы, 11б",
    "latitude": 50.44243023000002,
    "longitude": 30.55060874666667,
    "image_url": "https://img.lun.ua/building-1600x1200/2979.jpg"
  },
  {
    "building_id": 630,
    "name": "ЖК Central Park",
    "address": "ул. Джона Маккейна (Ивана Кудри), 7",
    "latitude": 50.414808118863,
    "longitude": 30.531068388372,
    "image_url": "https://img.lun.ua/building-1600x1200/5637.jpg"
  },
  {
    "building_id": 638,
    "name": "",
    "address": "ул. Евгения Коновальца (Щорса), 36в",
    "latitude": 50.42513841748319,
    "longitude": 30.532736906884328,
    "image_url": "https://img.lun.ua/building-1600x1200/2981.jpg"
  },
  {
    "building_id": 639,
    "name": "",
    "address": "Кловский спуск, 7",
    "latitude": 50.438579702704544,
    "longitude": 30.538927176967263,
    "image_url": "https://img.lun.ua/building-1600x1200/2986.jpg"
  },
  {
    "building_id": 642,
    "name": "",
    "address": "ул. Казимира Малевича (Боженка), 44 / ул. Ямская, 35",
    "latitude": 50.42409584858587,
    "longitude": 30.512589338622913,
    "image_url": "https://img.lun.ua/building-1600x1200/2997.jpg"
  },
  {
    "building_id": 734,
    "name": "",
    "address": "ул. Мишуги, 12",
    "latitude": 50.39536647550354,
    "longitude": 30.63626715622284,
    "image_url": "https://img.lun.ua/building-1600x1200/3002.jpg"
  },
  {
    "building_id": 735,
    "name": "ЖК Липская башня",
    "address": "ул. Институская, 18",
    "latitude": 50.44580846508452,
    "longitude": 30.531609618385307,
    "image_url": "https://img.lun.ua/building-1600x1200/3004.jpg"
  },
  {
    "building_id": 736,
    "name": "",
    "address": "ул. Николая Закревского, 93а",
    "latitude": 50.529760062499996,
    "longitude": 30.62768294583334,
    "image_url": "https://img.lun.ua/building-1600x1200/3007.jpg"
  },
  {
    "building_id": 738,
    "name": "",
    "address": "ул. Урловская, 23в",
    "latitude": 50.409635483333325,
    "longitude": 30.61257468333333,
    "image_url": "https://img.lun.ua/building-1600x1200/4362.jpg"
  },
  {
    "building_id": 746,
    "name": "ЖК на Кондратюка",
    "address": "ул. Юрия Кондратюка, 3, 5, 7",
    "latitude": 50.52549425199278,
    "longitude": 30.46031506733084,
    "image_url": "https://img.lun.ua/building-1600x1200/5756.jpg"
  },
  {
    "building_id": 747,
    "name": "ЖК Зеленый остров",
    "address": "ул. Танковая, 1",
    "latitude": 50.463308366506254,
    "longitude": 30.43262158272545,
    "image_url": "https://img.lun.ua/building-1600x1200/4364.jpg"
  },
  {
    "building_id": 768,
    "name": "Mary Castle",
    "address": "ул. Дружная, 18",
    "latitude": 50.431857016523736,
    "longitude": 30.492432424798608,
    "image_url": "https://img.lun.ua/building-1600x1200/4378.jpg"
  },
  {
    "building_id": 771,
    "name": "ЖК Воздвиженка",
    "address": "ул. Воздвиженская, 9-19, 22, 48, 50, ул. Дегтярная, 5, ул. Кожемяцкая, 12в, 14б, 14в, 16б, 20в, 20г",
    "latitude": 50.459891614848,
    "longitude": 30.511520053446,
    "image_url": "https://img.lun.ua/building-1600x1200/4085.jpg"
  },
  {
    "building_id": 776,
    "name": "",
    "address": "ул. Туполева, 17к",
    "latitude": 50.48206908822032,
    "longitude": 30.389287644180282,
    "image_url": "https://img.lun.ua/building-1600x1200/3009.jpg"
  },
  {
    "building_id": 777,
    "name": "",
    "address": "ул. Новомостицкая, 12а",
    "latitude": 50.500596039296,
    "longitude": 30.44198342599,
    "image_url": "https://img.lun.ua/building-1600x1200/4384.jpg"
  },
  {
    "building_id": 782,
    "name": "ЖК Барвинок",
    "address": "ул. Шумского / ул. Березняковская",
    "latitude": 50.42266943295931,
    "longitude": 30.604813309539804,
    "image_url": "https://img.lun.ua/building-1600x1200/4094.jpg"
  },
  {
    "building_id": 783,
    "name": "",
    "address": "бул. Леси Украинки, 7а",
    "latitude": 50.43412828867975,
    "longitude": 30.53166562167356,
    "image_url": "https://img.lun.ua/building-1600x1200/3012.jpg"
  },
  {
    "building_id": 801,
    "name": "Клубный дом «Золотой Лев»",
    "address": "пер. Краснокутский, 16",
    "latitude": 50.43407499408928,
    "longitude": 30.637884737434383,
    "image_url": "https://img.lun.ua/building-1600x1200/4385.jpg"
  },
  {
    "building_id": 802,
    "name": "Клубный дом «Арт Холл»",
    "address": "ул. Бульварно-Кудрявская (Воровского), 21",
    "latitude": 50.45227155454235,
    "longitude": 30.501350769773126,
    "image_url": "https://img.lun.ua/building-1600x1200/18514.jpg"
  },
  {
    "building_id": 804,
    "name": "ЖК Днепровские башни",
    "address": "просп. Генерала Ватутина, 9",
    "latitude": 50.49779874024925,
    "longitude": 30.579797996032767,
    "image_url": "https://img.lun.ua/building-1600x1200/4386.jpg"
  },
  {
    "building_id": 822,
    "name": "ЖК Новодарницкий",
    "address": "ул. Юрия Пасхалина (Ильича), 17",
    "latitude": 50.42551288164964,
    "longitude": 30.65182427434387,
    "image_url": "https://img.lun.ua/building-1600x1200/4388.jpg"
  },
  {
    "building_id": 835,
    "name": "",
    "address": "ул. Белицкая, 20",
    "latitude": 50.4944362525,
    "longitude": 30.4456474675,
    "image_url": "https://img.lun.ua/building-1600x1200/3019.jpg"
  },
  {
    "building_id": 836,
    "name": "ЖК Парк Стоун",
    "address": "просп. Героев Сталинграда, 2д",
    "latitude": 50.489932574199685,
    "longitude": 30.528300021013077,
    "image_url": "https://img.lun.ua/building-1600x1200/3021.jpg"
  },
  {
    "building_id": 840,
    "name": "ЖК Родинний затишок",
    "address": "бул. Гашека Ярослава, 20, 22, 24",
    "latitude": 50.4378252090321,
    "longitude": 30.63436889240967,
    "image_url": "https://img.lun.ua/building-1600x1200/2624.jpg"
  },
  {
    "building_id": 842,
    "name": "",
    "address": "просп. Григоренко, 12-14",
    "latitude": 50.412407955733,
    "longitude": 30.623719263822,
    "image_url": "https://img.lun.ua/building-1600x1200/4098.jpg"
  },
  {
    "building_id": 844,
    "name": "",
    "address": "ул. Урловская (стройпл. 10, Позняки-2)",
    "latitude": 50.407459401855,
    "longitude": 30.62098743394,
    "image_url": "https://img.lun.ua/building-1600x1200/3026.jpg"
  },
  {
    "building_id": 845,
    "name": "",
    "address": "ул. Петропавловская, 50, 50б",
    "latitude": 50.483762066666664,
    "longitude": 30.45874571666667,
    "image_url": "https://img.lun.ua/building-1600x1200/4391.jpg"
  },
  {
    "building_id": 846,
    "name": "ЖК Златоустовский",
    "address": "ул. Черновола, 27, 29а, ул. Полтавская, 10, ул. Дмитриевская, 75, ул. Златоустовская, 55",
    "latitude": 50.454852976701,
    "longitude": 30.485709445845,
    "image_url": "https://img.lun.ua/building-1600x1200/4627.jpg"
  },
  {
    "building_id": 847,
    "name": "",
    "address": "ул. Борщаговская, 152а, 152в",
    "latitude": 50.446133254177234,
    "longitude": 30.445984347221295,
    "image_url": "https://img.lun.ua/building-1600x1200/3030.jpg"
  },
  {
    "building_id": 849,
    "name": "ЖК Нагорный",
    "address": "ул. Нагорная, 15",
    "latitude": 50.475031324999996,
    "longitude": 30.4810323,
    "image_url": "https://img.lun.ua/building-1600x1200/4392.jpg"
  },
  {
    "building_id": 850,
    "name": "",
    "address": "ул. Коперника, 11",
    "latitude": 50.459109225,
    "longitude": 30.4832925,
    "image_url": "https://img.lun.ua/building-1600x1200/4761.jpg"
  },
  {
    "building_id": 856,
    "name": "ЖК Бульвар Фонтанов",
    "address": "ул. Иоанна Павла ІІ (Патриса Лумумбы), 6/1",
    "latitude": 50.41976586514689,
    "longitude": 30.530372239425645,
    "image_url": "https://img.lun.ua/building-1600x1200/17151.jpg"
  },
  {
    "building_id": 857,
    "name": "ЖК Кришталеві джерела",
    "address": "ул. Метрологическая, ул. Академика Заболотного, 148",
    "latitude": 50.34821077594,
    "longitude": 30.478417728292,
    "image_url": "https://img.lun.ua/building-1600x1200/31033.jpg"
  },
  {
    "building_id": 860,
    "name": "ЖК Уютный дом",
    "address": "ул. Гетьмана, 30б",
    "latitude": 50.44511673125,
    "longitude": 30.440345962500004,
    "image_url": "https://img.lun.ua/building-1600x1200/4393.jpg"
  },
  {
    "building_id": 862,
    "name": "",
    "address": "ул. Антоновича (Горького), 103",
    "latitude": 50.42361925,
    "longitude": 30.516651975000002,
    "image_url": "https://img.lun.ua/building-1600x1200/4641.jpg"
  },
  {
    "building_id": 874,
    "name": "ЖК Грюнвальд",
    "address": "ул. Клавдиевская, 40а, 40б, 40в, 40г, 40д, 40ж, 40е",
    "latitude": 50.478244675,
    "longitude": 30.33913505,
    "image_url": "https://img.lun.ua/building-1600x1200/3031.jpg"
  },
  {
    "building_id": 875,
    "name": "",
    "address": "ул. Полесская, 28б",
    "latitude": 50.42147835,
    "longitude": 30.6827546,
    "image_url": "https://img.lun.ua/building-1600x1200/3047.jpg"
  },
  {
    "building_id": 921,
    "name": "",
    "address": "просп. Победы, 115а",
    "latitude": 50.45518050083278,
    "longitude": 30.36538841667811,
    "image_url": "https://img.lun.ua/building-1600x1200/4401.jpg"
  },
  {
    "building_id": 922,
    "name": "",
    "address": "ул. Елены Пчелки, 5",
    "latitude": 50.41584019844032,
    "longitude": 30.6311967332824,
    "image_url": "https://img.lun.ua/building-1600x1200/3048.jpg"
  },
  {
    "building_id": 927,
    "name": "ЖК Парк Хиллс (Молодежная инициатива)",
    "address": "ул. Степана Руданского, 9а",
    "latitude": 50.468864363824,
    "longitude": 30.430355553918,
    "image_url": "https://img.lun.ua/building-1600x1200/31231.jpg"
  },
  {
    "building_id": 937,
    "name": "",
    "address": "ул. Елены Пчелки, 6",
    "latitude": 50.41686109166667,
    "longitude": 30.631259195833334,
    "image_url": "https://img.lun.ua/building-1600x1200/3050.jpg"
  },
  {
    "building_id": 939,
    "name": "",
    "address": "пер. Лабораторный, 6",
    "latitude": 50.426284807925,
    "longitude": 30.524850558493,
    "image_url": "https://img.lun.ua/building-1600x1200/3052.jpg"
  },
  {
    "building_id": 940,
    "name": "",
    "address": "ул. Константина Данькевича / ул. Марины Цветаевой",
    "latitude": 50.52172910909091,
    "longitude": 30.61646689090909,
    "image_url": "https://img.lun.ua/building-1600x1200/4103.jpg"
  },
  {
    "building_id": 941,
    "name": "",
    "address": "ул. Константина Данькевича 10-16, ул. Марины Цветаевой, 11-12",
    "latitude": 50.521743103346,
    "longitude": 30.613180734217,
    "image_url": "https://img.lun.ua/building-1600x1200/4107.jpg"
  },
  {
    "building_id": 964,
    "name": "ЖК Симфония",
    "address": "просп. Науки, 66-70",
    "latitude": 50.37755676992911,
    "longitude": 30.53628151918788,
    "image_url": "https://img.lun.ua/building-1600x1200/4406.jpg"
  },
  {
    "building_id": 974,
    "name": "ЖК Полесский",
    "address": "ул. Николая Хвылевого, 1",
    "latitude": 50.417607228517,
    "longitude": 30.680842269212,
    "image_url": "https://img.lun.ua/building-1600x1200/4109.jpg"
  },
  {
    "building_id": 986,
    "name": "",
    "address": "ул. Васильченко, 3/24",
    "latitude": 50.42501194492819,
    "longitude": 30.446795949737506,
    "image_url": "https://img.lun.ua/building-1600x1200/3059.jpg"
  },
  {
    "building_id": 988,
    "name": "",
    "address": "ул. Львовская, 22, 22а",
    "latitude": 50.45491945,
    "longitude": 30.37466125,
    "image_url": "https://img.lun.ua/building-1600x1200/3060.jpg"
  },
  {
    "building_id": 1007,
    "name": "",
    "address": "ул. Урловская, 20",
    "latitude": 50.40835756086957,
    "longitude": 30.62019343695652,
    "image_url": "https://img.lun.ua/building-1600x1200/23809.jpg"
  },
  {
    "building_id": 1012,
    "name": "ЖК Татарский",
    "address": "ул. Отто Шмидта, 10ж",
    "latitude": 50.47020328132706,
    "longitude": 30.491118747740984,
    "image_url": "https://img.lun.ua/building-1600x1200/3064.jpg"
  },
  {
    "building_id": 1013,
    "name": "ЖК Стольный град",
    "address": "ул. Лысянская, 9",
    "latitude": 50.51822975724324,
    "longitude": 30.439582965306272,
    "image_url": "https://img.lun.ua/building-1600x1200/3076.jpg"
  },
  {
    "building_id": 1024,
    "name": "ЖК Новая Волна",
    "address": "ул. Харьковское шоссе, 15а",
    "latitude": 50.4346599875,
    "longitude": 30.6347442625,
    "image_url": "https://img.lun.ua/building-1600x1200/2632.jpg"
  },
  {
    "building_id": 1025,
    "name": "ЖК Куреневский",
    "address": "ул. Рылеева, 25",
    "latitude": 50.48519695,
    "longitude": 30.462864274999998,
    "image_url": "https://img.lun.ua/building-1600x1200/4409.jpg"
  },
  {
    "building_id": 1045,
    "name": "ЖК Royal Hills",
    "address": "ул. Ольшанская, 2",
    "latitude": 50.41327357894737,
    "longitude": 30.55204347894737,
    "image_url": ""
  },
  {
    "building_id": 1046,
    "name": "ЖК Виконт",
    "address": "ул. Соляная, 70",
    "latitude": 50.46647278306191,
    "longitude": 30.49023410185222,
    "image_url": "https://img.lun.ua/building-1600x1200/4643.jpg"
  },
  {
    "building_id": 1048,
    "name": "ЖК Zverinetskiy",
    "address": "ул. Зверинецкая, 47",
    "latitude": 50.408204,
    "longitude": 30.554759400000002,
    "image_url": "https://img.lun.ua/building-1600x1200/4411.jpg"
  },
  {
    "building_id": 1049,
    "name": "",
    "address": "ул. Дмитриевская, 66а",
    "latitude": 50.45313444444444,
    "longitude": 30.488834355555557,
    "image_url": "https://img.lun.ua/building-1600x1200/4110.jpg"
  },
  {
    "building_id": 1050,
    "name": "ЖК Стародарницкий",
    "address": "ул. Лохвицкая, 1-2",
    "latitude": 50.43345238869665,
    "longitude": 30.63470593254088,
    "image_url": "https://img.lun.ua/building-1600x1200/4430.jpg"
  },
  {
    "building_id": 1059,
    "name": "ЖК Островского, 40",
    "address": "ул. Патриарха Мстислава Скрыпныка (Островского), 40",
    "latitude": 50.4343604,
    "longitude": 30.4809712,
    "image_url": "https://img.lun.ua/building-1600x1200/4682.jpg"
  },
  {
    "building_id": 1060,
    "name": "ЖК Тихорецкий",
    "address": "ул. Тихорецкая, 30/7",
    "latitude": 50.40036569629862,
    "longitude": 30.496872772090114,
    "image_url": "https://img.lun.ua/building-1600x1200/3078.jpg"
  },
  {
    "building_id": 1066,
    "name": "ЖК Славгородский",
    "address": "ул. Славгородская, 25",
    "latitude": 50.420874418723,
    "longitude": 30.659715208122,
    "image_url": "https://img.lun.ua/building-1600x1200/3101.jpg"
  },
  {
    "building_id": 1071,
    "name": "",
    "address": "ул. Радужная, 54",
    "latitude": 50.477249975,
    "longitude": 30.588944675,
    "image_url": "https://img.lun.ua/building-1600x1200/3105.jpg"
  },
  {
    "building_id": 1075,
    "name": "",
    "address": "ул. Ахматовой, 34",
    "latitude": 50.408037292668325,
    "longitude": 30.621217457672106,
    "image_url": "https://img.lun.ua/building-1600x1200/3106.jpg"
  },
  {
    "building_id": 1080,
    "name": "ЖК Арт Хаус",
    "address": "ул. Лисичанская, 29",
    "latitude": 50.412302,
    "longitude": 30.495374999999967,
    "image_url": "https://img.lun.ua/building-1600x1200/3108.jpg"
  },
  {
    "building_id": 1082,
    "name": "ЖК Відпочинок",
    "address": "ул. Петрицкого, 13, 15, 15а, 17, 17а, 19, 19а, 21, 21а, 23, 23а",
    "latitude": 50.446330620000005,
    "longitude": 30.381231279999998,
    "image_url": "https://img.lun.ua/building-1600x1200/4672.jpg"
  },
  {
    "building_id": 1083,
    "name": "ЖК Богатырский",
    "address": "ул. Богатырская, 6а",
    "latitude": 50.51908420785687,
    "longitude": 30.484814832389137,
    "image_url": "https://img.lun.ua/building-1600x1200/3119.jpg"
  },
  {
    "building_id": 1108,
    "name": "",
    "address": "ул. Саперно-Слободская, 92",
    "latitude": 50.402116705000005,
    "longitude": 30.537892845000005,
    "image_url": "https://img.lun.ua/building-1600x1200/4433.jpg"
  },
  {
    "building_id": 1109,
    "name": "Клубный дом Gelios",
    "address": "пер. Задорожного, 6а",
    "latitude": 50.395346700000005,
    "longitude": 30.50573515,
    "image_url": "https://img.lun.ua/building-1600x1200/4438.jpg"
  },
  {
    "building_id": 1110,
    "name": "ЖК Respublika",
    "address": "Большая Окружная дорога, 1",
    "latitude": 50.371061351383,
    "longitude": 30.451225356992,
    "image_url": "https://img.lun.ua/building-1600x1200/23711.png"
  },
  {
    "building_id": 1111,
    "name": "",
    "address": "ул. Милославская, 8, 12",
    "latitude": 50.534076373139335,
    "longitude": 30.602369199805025,
    "image_url": "https://img.lun.ua/building-1600x1200/3130.jpg"
  },
  {
    "building_id": 1113,
    "name": "ЖК Академика Глушкова, 92б",
    "address": "просп. Академика Глушкова, 92б",
    "latitude": 50.37084795782005,
    "longitude": 30.463750082999468,
    "image_url": "https://img.lun.ua/building-1600x1200/4857.jpg"
  },
  {
    "building_id": 1115,
    "name": "",
    "address": "ул. Лисковская, 7",
    "latitude": 50.523037510846,
    "longitude": 30.603152085096,
    "image_url": "https://img.lun.ua/building-1600x1200/3135.jpg"
  },
  {
    "building_id": 1116,
    "name": "ЖК Воссоединения, 21в",
    "address": "просп. Соборности (Воссоединения), 21в",
    "latitude": 50.439748607845424,
    "longitude": 30.609668882278452,
    "image_url": "https://img.lun.ua/building-1600x1200/19648.jpg"
  },
  {
    "building_id": 1117,
    "name": "",
    "address": "ул. Ушинского, 14б",
    "latitude": 50.43321279806454,
    "longitude": 30.44805100864423,
    "image_url": "https://img.lun.ua/building-1600x1200/4657.jpg"
  },
  {
    "building_id": 1119,
    "name": "",
    "address": "ул. Ревуцкого, 7в",
    "latitude": 50.420855425,
    "longitude": 30.64548025,
    "image_url": "https://img.lun.ua/building-1600x1200/3136.jpg"
  },
  {
    "building_id": 1121,
    "name": "ЖК Лисовый",
    "address": "ул. Генерала Матыкина, 16",
    "latitude": 50.301088275000005,
    "longitude": 30.573404599999996,
    "image_url": "https://img.lun.ua/building-1600x1200/28600.jpg"
  },
  {
    "building_id": 1122,
    "name": "ЖК Яскравый",
    "address": "ул. Семьи Кульженков (Петра Дегтяренко), 31а, 33, 35, ул. Петра Калнышевского (Майорова), 8",
    "latitude": 50.521186779802456,
    "longitude": 30.467031318694353,
    "image_url": "https://img.lun.ua/building-1600x1200/4990.jpg"
  },
  {
    "building_id": 1170,
    "name": "",
    "address": "ул. Кирилловская (Фрунзе), 85/87а",
    "latitude": 50.479532325,
    "longitude": 30.478274225,
    "image_url": "https://img.lun.ua/building-1600x1200/4473.jpg"
  },
  {
    "building_id": 1171,
    "name": "",
    "address": "ул. Малиновского, 8",
    "latitude": 50.50083118726944,
    "longitude": 30.49472720008699,
    "image_url": "https://img.lun.ua/building-1600x1200/4629.jpg"
  },
  {
    "building_id": 1172,
    "name": "Місто Квітів. Парковий квартал",
    "address": "ул. Тираспольская, 60",
    "latitude": 50.480236192834,
    "longitude": 30.412468034774,
    "image_url": "https://img.lun.ua/building-1600x1200/29527.jpg"
  },
  {
    "building_id": 1173,
    "name": "Клубный дом «Малевича, 48»",
    "address": "ул. Казимира Малевича (Боженко) / ул. Лабораторная",
    "latitude": 50.42334935,
    "longitude": 30.513492109999998,
    "image_url": "https://img.lun.ua/building-1600x1200/16877.jpg"
  },
  {
    "building_id": 1175,
    "name": "ЖК Златоуст",
    "address": "ул. Златоустовская, 47-49",
    "latitude": 50.45276589080093,
    "longitude": 30.486026552909834,
    "image_url": "https://img.lun.ua/building-1600x1200/3138.jpg"
  },
  {
    "building_id": 1195,
    "name": "ЖК Венеция",
    "address": "ул. Ломоносова / ул. Конева / ул. Вильямса",
    "latitude": 50.383380260272844,
    "longitude": 30.456631328015465,
    "image_url": "https://img.lun.ua/building-1600x1200/3141.jpg"
  },
  {
    "building_id": 1224,
    "name": "ARCH House",
    "address": "ул. Николая Пирогова / ул. Богдана Хмельницкого, 2/37б",
    "latitude": 50.4466084375,
    "longitude": 30.5056648875,
    "image_url": "https://img.lun.ua/building-1600x1200/3145.jpg"
  },
  {
    "building_id": 1225,
    "name": "ЖК Озерные Зори",
    "address": "ул. Шумського, 3г",
    "latitude": 50.42428944635923,
    "longitude": 30.604295796295187,
    "image_url": "https://img.lun.ua/building-1600x1200/3155.jpg"
  },
  {
    "building_id": 1226,
    "name": "ЖК Юбилейный",
    "address": "просп. Бажана, 8б",
    "latitude": 50.3923941664438,
    "longitude": 30.61247387545779,
    "image_url": "https://img.lun.ua/building-1600x1200/4477.jpg"
  },
  {
    "building_id": 1234,
    "name": "ЖК Дом на Шулявке",
    "address": "ул. Гарматная, 31а",
    "latitude": 50.44700041333333,
    "longitude": 30.434417,
    "image_url": "https://img.lun.ua/building-1600x1200/4491.jpg"
  },
  {
    "building_id": 1404,
    "name": "КГ Лесной Эдем",
    "address": "Брест-Литовское шоссе",
    "latitude": 50.45398,
    "longitude": 30.24866,
    "image_url": "https://img.lun.ua/building-1600x1200/4198.jpg"
  },
  {
    "building_id": 1669,
    "name": "QDRO - terraced house",
    "address": "ул. Февральская, 58",
    "latitude": 50.340867195863,
    "longitude": 30.55712018162,
    "image_url": "https://img.lun.ua/building-1600x1200/33225.jpg"
  },
  {
    "building_id": 1687,
    "name": "Воздвиженка",
    "address": "ул. Гончарная, 12в, ул. Воздвиженская, 34а, 36",
    "latitude": 50.459858366041225,
    "longitude": 30.5118178841019,
    "image_url": "https://img.lun.ua/building-1600x1200/4207.jpg"
  },
  {
    "building_id": 1859,
    "name": "ЖК Мозаика",
    "address": "Стратегическое шоссе, 53",
    "latitude": 50.400820332,
    "longitude": 30.541860024000012,
    "image_url": "https://img.lun.ua/building-1600x1200/2638.jpg"
  },
  {
    "building_id": 1865,
    "name": "ЖК Сырецкий Бояр",
    "address": "ул. Рижская, 73а",
    "latitude": 50.47172169421793,
    "longitude": 30.434525001327508,
    "image_url": "https://img.lun.ua/building-1600x1200/4163.jpg"
  },
  {
    "building_id": 1871,
    "name": "ЖК Дом на Кузьминской",
    "address": "ул. Жамбила Жабаева, 22",
    "latitude": 50.468630475,
    "longitude": 30.42842075,
    "image_url": "https://img.lun.ua/building-1600x1200/2642.jpg"
  },
  {
    "building_id": 1888,
    "name": "Клубный дом Chelsea Tower",
    "address": "ул. Деловая (Димитрова), 2",
    "latitude": 50.430163075,
    "longitude": 30.520562400000003,
    "image_url": "https://img.lun.ua/building-1600x1200/4492.jpg"
  },
  {
    "building_id": 1889,
    "name": "ЖК Royal House",
    "address": "ул. Московская, 44-1",
    "latitude": 50.3845769,
    "longitude": 30.453688475,
    "image_url": "https://img.lun.ua/building-1600x1200/4498.jpg"
  },
  {
    "building_id": 1906,
    "name": "ЖК Курортный",
    "address": "Пуща-Водица, ул. Федора Максименко (Краснофлотская), 24а",
    "latitude": 50.531686267659,
    "longitude": 30.362303319265,
    "image_url": "https://img.lun.ua/building-1600x1200/4515.jpg"
  },
  {
    "building_id": 1922,
    "name": "ЖК Новопечерский Двор",
    "address": "ул. Драгомирова, 2а",
    "latitude": 50.41356656666667,
    "longitude": 30.544487633333333,
    "image_url": "https://img.lun.ua/building-1600x1200/4178.jpg"
  },
  {
    "building_id": 1923,
    "name": "Клубный дом «Патриарх Холл»",
    "address": "ул. Саксаганского, 80",
    "latitude": 50.440658673559355,
    "longitude": 30.5011482629925,
    "image_url": "https://img.lun.ua/building-1600x1200/27085.jpg"
  },
  {
    "building_id": 1925,
    "name": "ЖК Solo Park",
    "address": "ул. Генерала Шаповала (Механизаторов), 20",
    "latitude": 50.428400599950095,
    "longitude": 30.477774632608998,
    "image_url": "https://img.lun.ua/building-1600x1200/16433.jpg"
  },
  {
    "building_id": 1930,
    "name": "ЖК Royal Tower",
    "address": "ул. Саксаганского, 37к",
    "latitude": 50.435011477272724,
    "longitude": 30.512209854545457,
    "image_url": "https://img.lun.ua/building-1600x1200/17472.jpg"
  },
  {
    "building_id": 1933,
    "name": "ЖК Садовый",
    "address": "ул. Комбинатная, 25, 25а",
    "latitude": 50.461200138593,
    "longitude": 30.585201302604,
    "image_url": "https://img.lun.ua/building-1600x1200/4213.jpg"
  },
  {
    "building_id": 1936,
    "name": "ЖК Энергия плюс",
    "address": "ул. Юности, 8а",
    "latitude": 50.4658694,
    "longitude": 30.618942233333332,
    "image_url": "https://img.lun.ua/building-1600x1200/3178.png"
  },
  {
    "building_id": 1942,
    "name": "ЖК Avenue 14-16",
    "address": "бул. Дружбы Народов, 14-16",
    "latitude": 50.414275650497,
    "longitude": 30.539782472354,
    "image_url": "https://img.lun.ua/building-1600x1200/4518.jpg"
  },
  {
    "building_id": 1968,
    "name": "ЖК Tetris Hall",
    "address": "ул. Деловая (Димитрова) / ул. Анри Барбюса, 1/2",
    "latitude": 50.429234595753,
    "longitude": 30.519895423204,
    "image_url": "https://img.lun.ua/building-1600x1200/21036.jpg"
  },
  {
    "building_id": 1969,
    "name": "ЖК Гранд",
    "address": "ул. Маршала Малиновского, 4в",
    "latitude": 50.50495977692307,
    "longitude": 30.488652338461538,
    "image_url": "https://img.lun.ua/building-1600x1200/4523.jpg"
  },
  {
    "building_id": 1970,
    "name": "ЖК Берестейский",
    "address": "просп. Победы, 55",
    "latitude": 50.457592816025,
    "longitude": 30.422035384923,
    "image_url": "https://img.lun.ua/building-1600x1200/3185.jpg"
  },
  {
    "building_id": 1973,
    "name": "ЖК Осенний",
    "address": "ул. Осенняя, 38а",
    "latitude": 50.467038461171,
    "longitude": 30.347691575065255,
    "image_url": "https://img.lun.ua/building-1600x1200/4527.jpg"
  },
  {
    "building_id": 1975,
    "name": "Таунхаус «Олегова Гора»",
    "address": "пер. Лукьяновский, 11",
    "latitude": 50.46349485821902,
    "longitude": 30.499591240659356,
    "image_url": "https://img.lun.ua/building-1600x1200/15191.jpg"
  },
  {
    "building_id": 1983,
    "name": "ЖК Taryan Towers",
    "address": "ул. Иоанна Павла ІІ (Патриса Лумумбы), 12",
    "latitude": 50.41941651360367,
    "longitude": 30.533620613808527,
    "image_url": "https://img.lun.ua/building-1600x1200/35787.jpg"
  },
  {
    "building_id": 1987,
    "name": "КГ Итальянский квартал",
    "address": "ул. Редчинская, 2а",
    "latitude": 50.54055952941793,
    "longitude": 30.49446322694421,
    "image_url": "https://img.lun.ua/building-1600x1200/4701.jpg"
  },
  {
    "building_id": 2005,
    "name": "",
    "address": "ул. Милославская, 2, 2б, 2в",
    "latitude": 50.53405250416665,
    "longitude": 30.60644140416667,
    "image_url": "https://img.lun.ua/building-1600x1200/4535.jpg"
  },
  {
    "building_id": 2045,
    "name": "ЖК Совские пруды",
    "address": "ул. Владимира Брожко (Кировоградская), 70",
    "latitude": 50.410906950000005,
    "longitude": 30.501159516666664,
    "image_url": "https://img.lun.ua/building-1600x1200/30602.jpg"
  },
  {
    "building_id": 2048,
    "name": "",
    "address": "ул. Мартиросяна, 5",
    "latitude": 50.4270944,
    "longitude": 30.455635225,
    "image_url": "https://img.lun.ua/building-1600x1200/4539.jpg"
  },
  {
    "building_id": 2051,
    "name": "ЖК Alter Ego",
    "address": "пер. Лабораторный, 7",
    "latitude": 50.42771542222222,
    "longitude": 30.525991444444443,
    "image_url": "https://img.lun.ua/building-1600x1200/20599.jpg"
  },
  {
    "building_id": 2052,
    "name": "ЖК Малахит",
    "address": "ул. Богдановская, 7а",
    "latitude": 50.43534660860611,
    "longitude": 30.477665030630305,
    "image_url": "https://img.lun.ua/building-1600x1200/30052.png"
  },
  {
    "building_id": 2070,
    "name": "ЖК Статус Град",
    "address": "ул. Завальная, 10",
    "latitude": 50.39261423633426,
    "longitude": 30.615730483722153,
    "image_url": "https://img.lun.ua/building-1600x1200/4113.jpg"
  },
  {
    "building_id": 2071,
    "name": "ЖК Власна квартира",
    "address": "ул. Академика Вильямса, 6г, 8д, 8а, пер. Московский, 2ж",
    "latitude": 50.390573895317516,
    "longitude": 30.4624919090179,
    "image_url": "https://img.lun.ua/building-1600x1200/28606.jpg"
  },
  {
    "building_id": 2079,
    "name": "",
    "address": "ул. Гарматная, 20",
    "latitude": 50.448978597501565,
    "longitude": 30.43281544510137,
    "image_url": "https://img.lun.ua/building-1600x1200/4286.jpg"
  },
  {
    "building_id": 2090,
    "name": "ЖК Посольский",
    "address": "ул. Жамбыла Жабаева, 7д",
    "latitude": 50.467464462633195,
    "longitude": 30.42961247619627,
    "image_url": "https://img.lun.ua/building-1600x1200/3192.jpg"
  },
  {
    "building_id": 2093,
    "name": "",
    "address": "пер. Шишкинский",
    "latitude": 50.475438375,
    "longitude": 30.482352024999997,
    "image_url": "https://img.lun.ua/building-1600x1200/3196.jpg"
  },
  {
    "building_id": 2094,
    "name": "ЖК Fresco Sofia",
    "address": "ул. Олеся Гончара, 17-23",
    "latitude": 50.45352395,
    "longitude": 30.5107642,
    "image_url": "https://img.lun.ua/building-1600x1200/3197.jpg"
  },
  {
    "building_id": 2101,
    "name": "ЖК Святобор",
    "address": "ул. Верховинная, 28",
    "latitude": 50.454460854899,
    "longitude": 30.374691719522,
    "image_url": "https://img.lun.ua/building-1600x1200/26724.jpg"
  },
  {
    "building_id": 2107,
    "name": "",
    "address": "ул. Анри Барбюса, 39/2",
    "latitude": 50.41988642283099,
    "longitude": 30.527409759999973,
    "image_url": "https://img.lun.ua/building-1600x1200/20186.jpg"
  },
  {
    "building_id": 2108,
    "name": "ЖК Лукьяновский",
    "address": "ул. Мельникова, 51б",
    "latitude": 50.465512976610526,
    "longitude": 30.47537893988192,
    "image_url": "https://img.lun.ua/building-1600x1200/4540.jpg"
  },
  {
    "building_id": 2114,
    "name": "",
    "address": "Харьковское шоссе, 182",
    "latitude": 50.4082765053883,
    "longitude": 30.6721161018524,
    "image_url": "https://img.lun.ua/building-1600x1200/4659.jpg"
  },
  {
    "building_id": 2115,
    "name": "",
    "address": "ул. Хорольская, 1а",
    "latitude": 50.433485241215,
    "longitude": 30.641066450626,
    "image_url": "https://img.lun.ua/building-1600x1200/4661.jpg"
  },
  {
    "building_id": 2125,
    "name": "ЖК Зеленый остров-2",
    "address": "ул. Авиаконструктора Игоря Сикорского, 4-6",
    "latitude": 50.46480763370902,
    "longitude": 30.429903015772084,
    "image_url": "https://img.lun.ua/building-1600x1200/3226.jpg"
  },
  {
    "building_id": 2129,
    "name": "ЖК Андерсен",
    "address": "ул. Сечевых Стрельцов (Артема), 84а",
    "latitude": 50.458855589061756,
    "longitude": 30.487561533227563,
    "image_url": "https://img.lun.ua/building-1600x1200/4542.jpg"
  },
  {
    "building_id": 2174,
    "name": "ЖК Гарматная, 39 Г",
    "address": "ул. Гарматная, 39г",
    "latitude": 50.44425351926317,
    "longitude": 30.432641477372098,
    "image_url": "https://img.lun.ua/building-1600x1200/4871.jpg"
  },
  {
    "building_id": 2178,
    "name": "МФК Metropole",
    "address": "ул. Большая Васильковская, 91-93",
    "latitude": 50.424267347135,
    "longitude": 30.518986243755,
    "image_url": "https://img.lun.ua/building-1600x1200/36718.jpg"
  },
  {
    "building_id": 2183,
    "name": "ЖК Панорама",
    "address": "ул. Майкопская, 1а",
    "latitude": 50.4035326651329,
    "longitude": 30.50143257714808,
    "image_url": "https://img.lun.ua/building-1600x1200/3227.jpg"
  },
  {
    "building_id": 2186,
    "name": "ЖК Научный",
    "address": "ул. Петропавловская, 40",
    "latitude": 50.483932443328,
    "longitude": 30.462195798754,
    "image_url": "https://img.lun.ua/building-1600x1200/2660.jpg"
  },
  {
    "building_id": 2193,
    "name": "",
    "address": "ул. Драгоманова (стройплощадки 1, 2, 3)",
    "latitude": 50.40613999321811,
    "longitude": 30.638338608459417,
    "image_url": "https://img.lun.ua/building-1600x1200/30721.png"
  },
  {
    "building_id": 2195,
    "name": "",
    "address": "ул. Урловская, 38а",
    "latitude": 50.411943038384,
    "longitude": 30.617976654321,
    "image_url": "https://img.lun.ua/building-1600x1200/3236.jpg"
  },
  {
    "building_id": 2199,
    "name": "ЖК Парк-холл Горький",
    "address": "ул. Антоновича (Горького), 131",
    "latitude": 50.41792090146082,
    "longitude": 30.52032566137693,
    "image_url": "https://img.lun.ua/building-1600x1200/4185.jpg"
  },
  {
    "building_id": 2222,
    "name": "ЖК Обуховская, 135а",
    "address": "ул. Обуховская, 135а",
    "latitude": 50.46587885130699,
    "longitude": 30.3253866098853,
    "image_url": "https://img.lun.ua/building-1600x1200/18442.jpg"
  },
  {
    "building_id": 2241,
    "name": "ЖК Артемовский",
    "address": "ул. Бакинская, 37в",
    "latitude": 50.48283776831019,
    "longitude": 30.451051035895944,
    "image_url": "https://img.lun.ua/building-1600x1200/4219.jpg"
  },
  {
    "building_id": 2252,
    "name": "ЖК Подол Престиж",
    "address": "ул. Нижний Вал",
    "latitude": 50.46699321755294,
    "longitude": 30.51260850392282,
    "image_url": "https://img.lun.ua/building-1600x1200/4554.jpg"
  },
  {
    "building_id": 2253,
    "name": "ЖК Дом на Бестужева",
    "address": "ул. Бестужева, 2г",
    "latitude": 50.515387083577174,
    "longitude": 30.44288800098002,
    "image_url": "https://img.lun.ua/building-1600x1200/4555.jpg"
  },
  {
    "building_id": 2254,
    "name": "ЖК Столичный дом",
    "address": "ул. Сечевых Стрельцов (Артема), 70",
    "latitude": 50.457642683333326,
    "longitude": 30.488665116666667,
    "image_url": "https://img.lun.ua/building-1600x1200/3238.jpg"
  },
  {
    "building_id": 2260,
    "name": "КГ Крутогорный",
    "address": "ул. Крутогорная, 13а",
    "latitude": 50.40959063205729,
    "longitude": 30.485515533734997,
    "image_url": "https://img.lun.ua/building-1600x1200/4560.jpg"
  },
  {
    "building_id": 2262,
    "name": "ЖК Столичные каштаны",
    "address": "ул. Якуба Коласа, 2б",
    "latitude": 50.433206748848086,
    "longitude": 30.37383796647191,
    "image_url": "https://img.lun.ua/building-1600x1200/4561.jpg"
  },
  {
    "building_id": 2264,
    "name": "ЖК Французский квартал",
    "address": "ул. Анри Барбюса, 52/1, 52/1а, ул. Филатова, 2/1",
    "latitude": 50.41758443497583,
    "longitude": 30.529442746192217,
    "image_url": "https://img.lun.ua/building-1600x1200/5076.jpg"
  },
  {
    "building_id": 2273,
    "name": "ЖК Поэтичный",
    "address": "ул. Здолбуновская, 13",
    "latitude": 50.417854541040704,
    "longitude": 30.625197452590278,
    "image_url": "https://img.lun.ua/building-1600x1200/3242.jpg"
  },
  {
    "building_id": 2294,
    "name": "",
    "address": "ул. Евгена Маланюка (Сагайдака), 101",
    "latitude": 50.461867349725,
    "longitude": 30.581335499883,
    "image_url": "https://img.lun.ua/building-1600x1200/19444.jpg"
  },
  {
    "building_id": 2305,
    "name": "ЖК Краснозвездный",
    "address": "просп. Валерия Лобановского (Краснозвездный), 4",
    "latitude": 50.42123955294117,
    "longitude": 30.465092941176476,
    "image_url": "https://img.lun.ua/building-1600x1200/3247.jpg"
  },
  {
    "building_id": 2318,
    "name": "",
    "address": "ул. Ахматовой, 22 (стройпл. 8а, Позняки-2)",
    "latitude": 50.40836457470204,
    "longitude": 30.624484949737543,
    "image_url": "https://img.lun.ua/building-1600x1200/3252.jpg"
  },
  {
    "building_id": 2320,
    "name": "Клубный дом «Приозерный 24»",
    "address": "ул. Дмитрия Яворницкого (Коллонтай), 24",
    "latitude": 50.4617592,
    "longitude": 30.3374066,
    "image_url": "https://img.lun.ua/building-1600x1200/4122.jpg"
  },
  {
    "building_id": 2321,
    "name": "",
    "address": "ул. Григоренко, 12а (стройпл. 1, Позняки-2)",
    "latitude": 50.412870122349,
    "longitude": 30.622667518388,
    "image_url": "https://img.lun.ua/building-1600x1200/3255.jpg"
  },
  {
    "building_id": 2327,
    "name": "",
    "address": "ул. Коперника, 7",
    "latitude": 50.459238558842486,
    "longitude": 30.484090009704232,
    "image_url": "https://img.lun.ua/building-1600x1200/5196.jpg"
  },
  {
    "building_id": 2328,
    "name": "",
    "address": "ул. Феодосийская, 2 (е, ж, з, и)",
    "latitude": 50.40196723607536,
    "longitude": 30.53197489120066,
    "image_url": "https://img.lun.ua/building-1600x1200/4767.jpg"
  },
  {
    "building_id": 2329,
    "name": "",
    "address": "ул. Радунская, 28-32",
    "latitude": 50.526474750000006,
    "longitude": 30.6024515,
    "image_url": "https://img.lun.ua/building-1600x1200/4667.jpg"
  },
  {
    "building_id": 2331,
    "name": "ЖК Козацкий",
    "address": "ул. Гарматная, 38",
    "latitude": 50.44263506199991,
    "longitude": 30.42876617051661,
    "image_url": "https://img.lun.ua/building-1600x1200/29082.jpg"
  },
  {
    "building_id": 2337,
    "name": "",
    "address": "ул. Волынская / ул. Смелянская",
    "latitude": 50.424036313155,
    "longitude": 30.446134675294,
    "image_url": "https://img.lun.ua/building-1600x1200/3257.jpg"
  },
  {
    "building_id": 2351,
    "name": "ЖК Академгородок",
    "address": "ул. Академика Ефремова (Командарма Уборевича), 8а",
    "latitude": 50.465345512499994,
    "longitude": 30.352122850000004,
    "image_url": "https://img.lun.ua/building-1600x1200/4126.jpg"
  },
  {
    "building_id": 2355,
    "name": "ЖК Старокиевский",
    "address": "ул. Старокиевская, 10",
    "latitude": 50.45258434,
    "longitude": 30.473593639999997,
    "image_url": "https://img.lun.ua/building-1600x1200/4248.jpg"
  },
  {
    "building_id": 2367,
    "name": "ЖК Кассиопея",
    "address": "ул.  Евгена Маланюка (Сагайдака), 101а",
    "latitude": 50.459531686093,
    "longitude": 30.585441273819,
    "image_url": "https://img.lun.ua/building-1600x1200/4224.jpg"
  },
  {
    "building_id": 2393,
    "name": "ЖК Лыбидь",
    "address": "ул. Казимира Малевича (Боженко), 89",
    "latitude": 50.41848880617436,
    "longitude": 30.5174530708687,
    "image_url": "https://img.lun.ua/building-1600x1200/4565.jpg"
  },
  {
    "building_id": 2429,
    "name": "ЖК Лидер",
    "address": "ул. Андрющенко, 6г",
    "latitude": 50.4536035,
    "longitude": 30.48008135,
    "image_url": "https://img.lun.ua/building-1600x1200/4568.jpg"
  },
  {
    "building_id": 2437,
    "name": "Клубный дом «Теремок»",
    "address": "ул. Академика Вильямса, 2г",
    "latitude": 50.3908766511295,
    "longitude": 30.46370759791936,
    "image_url": "https://img.lun.ua/building-1600x1200/3258.jpg"
  },
  {
    "building_id": 2450,
    "name": "ЖК Чемпион. Голосеево",
    "address": "пер. Московский, 2е",
    "latitude": 50.390784346561034,
    "longitude": 30.461668828502297,
    "image_url": "https://img.lun.ua/building-1600x1200/15112.png"
  },
  {
    "building_id": 2475,
    "name": "ЖК Оболонский бриз",
    "address": "просп. Оболонский, 30а",
    "latitude": 50.515942846296,
    "longitude": 30.503181335515,
    "image_url": "https://img.lun.ua/building-1600x1200/3263.jpg"
  },
  {
    "building_id": 2478,
    "name": "",
    "address": "просп. Отрадный, 4 (ул. Донца, 2а)",
    "latitude": 50.43581438235294,
    "longitude": 30.431310164705877,
    "image_url": "https://img.lun.ua/building-1600x1200/3266.jpg"
  },
  {
    "building_id": 2479,
    "name": "ЖК Оболонь Тауэр",
    "address": "просп. Оболонский, 54",
    "latitude": 50.526394867913126,
    "longitude": 30.499971440475424,
    "image_url": "https://img.lun.ua/building-1600x1200/3268.jpg"
  },
  {
    "building_id": 2480,
    "name": "ЖК Минский",
    "address": "ул. Попова, 3/5",
    "latitude": 50.500933752491,
    "longitude": 30.454981890492,
    "image_url": "https://img.lun.ua/building-1600x1200/4287.jpg"
  },
  {
    "building_id": 2486,
    "name": "ЖК Сказка",
    "address": "ул. Лебедева, 1",
    "latitude": 50.35151123819916,
    "longitude": 30.48739562488413,
    "image_url": "https://img.lun.ua/building-1600x1200/4794.jpg"
  },
  {
    "building_id": 2526,
    "name": "ЖК Британский квартал",
    "address": "ул. Дмитрия Луценко, 10",
    "latitude": 50.385737984907024,
    "longitude": 30.44688084255995,
    "image_url": "https://img.lun.ua/building-1600x1200/4575.jpg"
  },
  {
    "building_id": 2537,
    "name": "",
    "address": "ул. Николая Лебедева, 14",
    "latitude": 50.457445199999995,
    "longitude": 30.627848125,
    "image_url": "https://img.lun.ua/building-1600x1200/3282.jpg"
  },
  {
    "building_id": 2538,
    "name": "ЖК Златоустовская 14-18",
    "address": "ул. Златоустовская, 14-18",
    "latitude": 50.44959138,
    "longitude": 30.489505270000002,
    "image_url": "https://img.lun.ua/building-1600x1200/3287.jpg"
  },
  {
    "building_id": 2539,
    "name": "",
    "address": "ул. Красноткацкая, 2",
    "latitude": 50.45496639398906,
    "longitude": 30.629481011639264,
    "image_url": "https://img.lun.ua/building-1600x1200/3292.jpg"
  },
  {
    "building_id": 2540,
    "name": "",
    "address": "ул. Гната Хоткевича (Красногвардейская), 8",
    "latitude": 50.456886350000005,
    "longitude": 30.6314778,
    "image_url": "https://img.lun.ua/building-1600x1200/3294.jpg"
  },
  {
    "building_id": 2549,
    "name": "ЖК Перспектива",
    "address": "ул. Теодора Драйзера, 40",
    "latitude": 50.515065796053456,
    "longitude": 30.59438270898437,
    "image_url": "https://img.lun.ua/building-1600x1200/2668.jpg"
  },
  {
    "building_id": 2552,
    "name": "ЖК Авангард",
    "address": "просп. Голосеевский, 95",
    "latitude": 50.38336209388489,
    "longitude": 30.48554534327525,
    "image_url": "https://img.lun.ua/building-1600x1200/4166.jpg"
  },
  {
    "building_id": 2553,
    "name": "ЖК Микитская Слобода",
    "address": "ул. Героев Севастополя, 35а",
    "latitude": 50.43329388820591,
    "longitude": 30.422885427251458,
    "image_url": "https://img.lun.ua/building-1600x1200/4939.jpg"
  },
  {
    "building_id": 2578,
    "name": "",
    "address": "ул. Подвысоцкого, 4в",
    "latitude": 50.41116530744599,
    "longitude": 30.543031711131334,
    "image_url": "https://img.lun.ua/building-1600x1200/3295.jpg"
  },
  {
    "building_id": 2580,
    "name": "",
    "address": "ул. Теремковская, 3",
    "latitude": 50.37141530801091,
    "longitude": 30.455398461778827,
    "image_url": "https://img.lun.ua/building-1600x1200/4133.jpg"
  },
  {
    "building_id": 2581,
    "name": "ЖК Silver House",
    "address": "просп. Голосеевский, 74",
    "latitude": 50.398054801318,
    "longitude": 30.508750578705,
    "image_url": "https://img.lun.ua/building-1600x1200/17060.jpg"
  },
  {
    "building_id": 2583,
    "name": "ЖК Nobel Homes",
    "address": "ул. Гоголевская, 14",
    "latitude": 50.450231887529085,
    "longitude": 30.497071305289865,
    "image_url": "https://img.lun.ua/building-1600x1200/4227.jpg"
  },
  {
    "building_id": 2610,
    "name": "",
    "address": "ул. Елизаветы Чавдар, 13",
    "latitude": 50.39138801666667,
    "longitude": 30.625501916666668,
    "image_url": "https://img.lun.ua/building-1600x1200/25358.png"
  },
  {
    "building_id": 2620,
    "name": "Цитадель «Теремки»",
    "address": "ул. Академика Вильямса, 10, 10а",
    "latitude": 50.38951514546069,
    "longitude": 30.462398679853923,
    "image_url": "https://img.lun.ua/building-1600x1200/3304.jpg"
  },
  {
    "building_id": 2623,
    "name": "ЖК Бруклин",
    "address": "ул. Ямская, 52",
    "latitude": 50.42207452829985,
    "longitude": 30.513008991256356,
    "image_url": "https://img.lun.ua/building-1600x1200/3306.jpg"
  },
  {
    "building_id": 2628,
    "name": "ЖК Stoletof",
    "address": "ул. Столетова, 56",
    "latitude": 50.39846549,
    "longitude": 30.54066868,
    "image_url": "https://img.lun.ua/building-1600x1200/18430.jpg"
  },
  {
    "building_id": 2639,
    "name": "ЖК Южный квартал",
    "address": "ул. Семьи Стешенко (Тимофея Строкача), 9",
    "latitude": 50.43438475,
    "longitude": 30.397773824999998,
    "image_url": "https://img.lun.ua/building-1600x1200/2675.jpg"
  },
  {
    "building_id": 2659,
    "name": "ЖК Obolon Residences",
    "address": "просп. Оболонский, 26",
    "latitude": 50.51312194924608,
    "longitude": 30.500035529424036,
    "image_url": "https://img.lun.ua/building-1600x1200/22025.jpg"
  },
  {
    "building_id": 2665,
    "name": "ЖК Concept Holl",
    "address": "пер. Московский, 2и, 2к",
    "latitude": 50.39061138773858,
    "longitude": 30.462010235392622,
    "image_url": "https://img.lun.ua/building-1600x1200/3353.jpg"
  },
  {
    "building_id": 2702,
    "name": "ЖК Panorama city (Демеевский квартал)",
    "address": "ул. Ракетная, 24",
    "latitude": 50.381845133773,
    "longitude": 30.540431477129,
    "image_url": "https://img.lun.ua/building-1600x1200/2679.jpg"
  },
  {
    "building_id": 2721,
    "name": "ЖК Дом на Клименко",
    "address": "ул. Клименко, 8б",
    "latitude": 50.424332796278286,
    "longitude": 30.47249690629542,
    "image_url": "https://img.lun.ua/building-1600x1200/4593.jpg"
  },
  {
    "building_id": 2780,
    "name": "ЖК Квартет",
    "address": "ул. Липковского, 16а",
    "latitude": 50.43570281240081,
    "longitude": 30.487042386084795,
    "image_url": "https://img.lun.ua/building-1600x1200/5145.jpg"
  },
  {
    "building_id": 2781,
    "name": "ЖК Хоффманн Хаус",
    "address": "ул. Златоустовская / ул. Павловская",
    "latitude": 50.45185826742273,
    "longitude": 30.48721557054421,
    "image_url": "https://img.lun.ua/building-1600x1200/4602.jpg"
  },
  {
    "building_id": 2784,
    "name": "ЖК Шевченковский",
    "address": "ул. Златоустовская, 27",
    "latitude": 50.45052564215005,
    "longitude": 30.487035999872855,
    "image_url": "https://img.lun.ua/building-1600x1200/25765.jpg"
  },
  {
    "building_id": 2801,
    "name": "ЖК Герцен Парк",
    "address": "ул. Герцена, 32",
    "latitude": 50.472676715998695,
    "longitude": 30.46267183497548,
    "image_url": "https://img.lun.ua/building-1600x1200/5354.jpg"
  },
  {
    "building_id": 2802,
    "name": "ЖК Обериг",
    "address": "ул. Бориспольская, 21-45",
    "latitude": 50.4221570431968,
    "longitude": 30.704365445833123,
    "image_url": "https://img.lun.ua/building-1600x1200/4809.jpg"
  },
  {
    "building_id": 2803,
    "name": "ЖК Аристократ",
    "address": "ул. Евгения Коновальца (Щорса), 34",
    "latitude": 50.4272378375,
    "longitude": 30.53263164375,
    "image_url": "https://img.lun.ua/building-1600x1200/4916.jpg"
  },
  {
    "building_id": 2815,
    "name": "ЖК Александрия",
    "address": "ул. Патриарха Мстислава Скрыпныка (Николая Островского), 48/50",
    "latitude": 50.43390211107586,
    "longitude": 30.478597590699792,
    "image_url": "https://img.lun.ua/building-1600x1200/3359.jpg"
  },
  {
    "building_id": 2821,
    "name": "ЖК Дом на Пожарского",
    "address": "ул. Пожарского",
    "latitude": 50.51505475,
    "longitude": 30.59173825,
    "image_url": "https://img.lun.ua/building-1600x1200/3363.jpg"
  },
  {
    "building_id": 2824,
    "name": "ЖК Комфорт Сити",
    "address": "ул. Полевая, 63-65",
    "latitude": 50.437338170025,
    "longitude": 30.446711489931,
    "image_url": "https://img.lun.ua/building-1600x1200/21135.jpg"
  },
  {
    "building_id": 2827,
    "name": "ЖД Ушакова, 1д",
    "address": "ул. Николая Ушакова, 1д",
    "latitude": 50.459944159269,
    "longitude": 30.337509373206,
    "image_url": "https://img.lun.ua/building-1600x1200/18373.jpg"
  },
  {
    "building_id": 2828,
    "name": "ЖК Позняки-4а",
    "address": "Позняки-4а, ул. Драгоманова, 2а, 2б, 4а, ул. Елены Пчелки, 6а, 8",
    "latitude": 50.41775419583314,
    "longitude": 30.633269269019365,
    "image_url": "https://img.lun.ua/building-1600x1200/19651.jpg"
  },
  {
    "building_id": 2834,
    "name": "ЖК Освіти 16",
    "address": "ул. Просвещения, 16, 16а",
    "latitude": 50.424044649163896,
    "longitude": 30.467063711639394,
    "image_url": "https://img.lun.ua/building-1600x1200/4978.png"
  },
  {
    "building_id": 2836,
    "name": "ЖК Бонапарт",
    "address": "ул. Щекавицкая, 53",
    "latitude": 50.472830825,
    "longitude": 30.5158801,
    "image_url": "https://img.lun.ua/building-1600x1200/4609.jpg"
  },
  {
    "building_id": 2837,
    "name": "ЖК Skyline",
    "address": "ул. Евгения Коновальца (Щорса), 26а",
    "latitude": 50.427678602081976,
    "longitude": 30.530506645514834,
    "image_url": "https://img.lun.ua/building-1600x1200/5466.jpg"
  },
  {
    "building_id": 2839,
    "name": "",
    "address": "просп. Науки, 55а",
    "latitude": 50.37946853749328,
    "longitude": 30.535843048934954,
    "image_url": "https://img.lun.ua/building-1600x1200/3371.jpg"
  },
  {
    "building_id": 2840,
    "name": "",
    "address": "ул. Булгакова, 13",
    "latitude": 50.41099036157,
    "longitude": 30.406298453602,
    "image_url": "https://img.lun.ua/building-1600x1200/3373.jpg"
  },
  {
    "building_id": 2841,
    "name": "ЖК Демеевка",
    "address": "ул. Демеевская, 14",
    "latitude": 50.40383506819142,
    "longitude": 30.511273304000497,
    "image_url": "https://img.lun.ua/building-1600x1200/5227.jpg"
  },
  {
    "building_id": 2843,
    "name": "ЖК Gloria Park",
    "address": "просп. Победы, 90/1",
    "latitude": 50.4593661514211,
    "longitude": 30.400547990575433,
    "image_url": "https://img.lun.ua/building-1600x1200/4801.jpg"
  },
  {
    "building_id": 2846,
    "name": "ЖК Геометрия",
    "address": "ул. Отто Шмидта, 9-11",
    "latitude": 50.469262045049,
    "longitude": 30.490327383787,
    "image_url": "https://img.lun.ua/building-1600x1200/29701.jpg"
  },
  {
    "building_id": 2847,
    "name": "",
    "address": "ул. Тургеневская, 46/11",
    "latitude": 50.452417525453,
    "longitude": 30.49205342151,
    "image_url": "https://img.lun.ua/building-1600x1200/3382.jpg"
  },
  {
    "building_id": 2858,
    "name": "",
    "address": "ул. Володи Дубинина, 5/15, 7/14",
    "latitude": 50.39207084617524,
    "longitude": 30.49587668851018,
    "image_url": "https://img.lun.ua/building-1600x1200/4872.jpg"
  },
  {
    "building_id": 2859,
    "name": "",
    "address": "ул. Гмыри, 17",
    "latitude": 50.39193706741,
    "longitude": 30.634918656415,
    "image_url": "https://img.lun.ua/building-1600x1200/3388.jpg"
  },
  {
    "building_id": 2868,
    "name": "",
    "address": "пер. Тбилисский, 1/26 (ул. Шулявская, 32)",
    "latitude": 50.45375972803,
    "longitude": 30.465654049097,
    "image_url": "https://img.lun.ua/building-1600x1200/3390.jpg"
  },
  {
    "building_id": 2877,
    "name": "Клубный дом «Цитадель»",
    "address": "ул. Вавиловых, 3",
    "latitude": 50.47460015,
    "longitude": 30.436753725,
    "image_url": "https://img.lun.ua/building-1600x1200/3395.jpg"
  },
  {
    "building_id": 2878,
    "name": "ЖК Паркова Вежа",
    "address": "ул. Краснопольская, 2г",
    "latitude": 50.510860792452235,
    "longitude": 30.444826567545533,
    "image_url": "https://img.lun.ua/building-1600x1200/3399.jpg"
  },
  {
    "building_id": 2882,
    "name": "",
    "address": "ул. Михаила Максимовича (Трутенко), 9",
    "latitude": 50.39047712857143,
    "longitude": 30.474644557142856,
    "image_url": "https://img.lun.ua/building-1600x1200/3412.jpg"
  },
  {
    "building_id": 2885,
    "name": "ЖК SOHO residence",
    "address": "ул. Демеевская, 13",
    "latitude": 50.403814745056245,
    "longitude": 30.513406852288426,
    "image_url": "https://img.lun.ua/building-1600x1200/4822.jpg"
  },
  {
    "building_id": 2887,
    "name": "ЖК Заречный",
    "address": "ул. Заречная, 1б, 1в, 1г, ул. Николая Бажана, 1а",
    "latitude": 50.39668321542631,
    "longitude": 30.600478369742632,
    "image_url": "https://img.lun.ua/building-1600x1200/32954.jpg"
  },
  {
    "building_id": 2888,
    "name": "Таунхаусы «Royal Hill»",
    "address": "пер. Докучаевский, 8",
    "latitude": 50.42568319551928,
    "longitude": 30.499682423466993,
    "image_url": "https://img.lun.ua/building-1600x1200/3414.jpg"
  },
  {
    "building_id": 2897,
    "name": "ЖК Champion City (Демеевский квартал)",
    "address": "ул. Ракетная, 24",
    "latitude": 50.382817882791,
    "longitude": 30.54330167605,
    "image_url": "https://img.lun.ua/building-1600x1200/2680.png"
  },
  {
    "building_id": 2900,
    "name": "ЖК Метрополия Дарница",
    "address": "ул. Сормовская, 3",
    "latitude": 50.427837317338,
    "longitude": 30.647552139602,
    "image_url": "https://img.lun.ua/building-1600x1200/29791.jpg"
  },
  {
    "building_id": 2902,
    "name": "",
    "address": "просп. Валерия Лобановского (Краснозвездный), 15/7",
    "latitude": 50.42368514647417,
    "longitude": 30.465252259746194,
    "image_url": "https://img.lun.ua/building-1600x1200/4669.jpg"
  },
  {
    "building_id": 2906,
    "name": "ЖК Амурский (Lemonade)",
    "address": "ул. Михаила Максимовича (Трутенко), 3",
    "latitude": 50.390334484615394,
    "longitude": 30.476952438461538,
    "image_url": "https://img.lun.ua/building-1600x1200/5130.jpg"
  },
  {
    "building_id": 2923,
    "name": "",
    "address": "ул. Донца, 2б (просп. Отрадный, 4а)",
    "latitude": 50.43681036859512,
    "longitude": 30.42983273068853,
    "image_url": "https://img.lun.ua/building-1600x1200/3420.jpg"
  },
  {
    "building_id": 2924,
    "name": "",
    "address": "ул. Урловская, 23г (стройпл.19, дом 5, Позняки-3)",
    "latitude": 50.40878600909091,
    "longitude": 30.612347663636363,
    "image_url": "https://img.lun.ua/building-1600x1200/3421.jpg"
  },
  {
    "building_id": 2929,
    "name": "ЖК Подол Градъ",
    "address": "ул. Дегтярная, 7, 8, 9-11, 10, 13-15, 17-21, 25, 29, 31, 32 ул. Кожемяцкая, 10ж",
    "latitude": 50.45934629677212,
    "longitude": 30.51013031040179,
    "image_url": "https://img.lun.ua/building-1600x1200/18298.jpg"
  },
  {
    "building_id": 2953,
    "name": "",
    "address": "ул. Евгения Коновальца (Щорса), 36е",
    "latitude": 50.42394040842601,
    "longitude": 30.534669113781774,
    "image_url": "https://img.lun.ua/building-1600x1200/3422.jpg"
  },
  {
    "building_id": 2956,
    "name": "КГ Кришталеві джерела",
    "address": "ул. Метрологическая",
    "latitude": 50.35054696087536,
    "longitude": 30.477574417811567,
    "image_url": "https://img.lun.ua/building-1600x1200/4231.jpg"
  },
  {
    "building_id": 2957,
    "name": "ЖК Geneva",
    "address": "бул. Вацлава Гавела (Ивана Лепсе), 9а",
    "latitude": 50.44589858333333,
    "longitude": 30.425470649999998,
    "image_url": "https://img.lun.ua/building-1600x1200/4805.jpg"
  },
  {
    "building_id": 2959,
    "name": "ЖК Лесная сказка",
    "address": "ул. Радистов, 32",
    "latitude": 50.47616324639193,
    "longitude": 30.67115911366909,
    "image_url": "https://img.lun.ua/building-1600x1200/5730.jpg"
  },
  {
    "building_id": 2970,
    "name": "ЖК Шевченковский квартал",
    "address": "ул. Украинская, 6 / ул. Новоукраинская, 24а",
    "latitude": 50.46999848,
    "longitude": 30.43153874,
    "image_url": "https://img.lun.ua/building-1600x1200/2688.jpg"
  },
  {
    "building_id": 2971,
    "name": "ЖК Маргарита",
    "address": "ул. Булгакова, 12а",
    "latitude": 50.4104869889,
    "longitude": 30.40746675,
    "image_url": "https://img.lun.ua/building-1600x1200/2691.jpg"
  },
  {
    "building_id": 2976,
    "name": "ЖК Новопечерська Вежа",
    "address": "ул. Бойчука (Киквидзе), 41",
    "latitude": 50.4049155854,
    "longitude": 30.55332578237,
    "image_url": "https://img.lun.ua/building-1600x1200/5519.jpg"
  },
  {
    "building_id": 2977,
    "name": "ЖМ Патриотика",
    "address": "ул. Бориса Гмыри, ул. Коллекторная",
    "latitude": 50.391958049599,
    "longitude": 30.627967312932,
    "image_url": "https://img.lun.ua/building-1600x1200/4770.jpg"
  },
  {
    "building_id": 2981,
    "name": "ЖК Енисейская усадьба",
    "address": "ул. Писаржевского, 8, ул. Иртышская, 20",
    "latitude": 50.395759374034796,
    "longitude": 30.535964766568554,
    "image_url": "https://img.lun.ua/building-1600x1200/17592.jpg"
  },
  {
    "building_id": 2982,
    "name": "Клубный дом «InCo Home на Подоле»",
    "address": "ул. Лукьяновская, 14а",
    "latitude": 50.46504479798783,
    "longitude": 30.505307986001885,
    "image_url": "https://img.lun.ua/building-1600x1200/4170.jpg"
  },
  {
    "building_id": 2984,
    "name": "ЖК Традиция",
    "address": "ул. Елены Пчелки, 3, 5а",
    "latitude": 50.415446713688816,
    "longitude": 30.629864030926797,
    "image_url": "https://img.lun.ua/building-1600x1200/30426.jpg"
  },
  {
    "building_id": 2985,
    "name": "",
    "address": "ул. Старонаводницкая / ул. Генерала Алмазова (Кутузова)",
    "latitude": 50.42851358,
    "longitude": 30.543688929999995,
    "image_url": ""
  },
  {
    "building_id": 2997,
    "name": "ЖК Lego House",
    "address": "ул. Сивашская, 12/2",
    "latitude": 50.433420675,
    "longitude": 30.640279624999998,
    "image_url": "https://img.lun.ua/building-1600x1200/2693.jpg"
  },
  {
    "building_id": 3001,
    "name": "",
    "address": "ул. Ивана Франко, 11",
    "latitude": 50.44890276337846,
    "longitude": 30.510330805554986,
    "image_url": "https://img.lun.ua/building-1600x1200/3438.jpg"
  },
  {
    "building_id": 3003,
    "name": "ЖК Жуляны",
    "address": "ул. Добробутная, 1",
    "latitude": 50.385572502488,
    "longitude": 30.439848910974,
    "image_url": "https://img.lun.ua/building-1600x1200/3439.jpg"
  },
  {
    "building_id": 3004,
    "name": "ЖК Кузьминский 2",
    "address": "ул. Магистральная",
    "latitude": 50.46911504327148,
    "longitude": 30.426131347194314,
    "image_url": "https://img.lun.ua/building-1600x1200/27818.jpg"
  },
  {
    "building_id": 3005,
    "name": "ЖК Солнечная Ривьера",
    "address": "ул. Никольско-Слободская, 1",
    "latitude": 50.450299783617,
    "longitude": 30.586288656068,
    "image_url": "https://img.lun.ua/building-1600x1200/25741.jpg"
  },
  {
    "building_id": 3013,
    "name": "",
    "address": "ул. Крушельницкой, 13, 15, 15а, 15б, 15в",
    "latitude": 50.39149723070521,
    "longitude": 30.64867672698364,
    "image_url": "https://img.lun.ua/building-1600x1200/3443.jpg"
  },
  {
    "building_id": 3015,
    "name": "",
    "address": "ул. Макаренка, 1а",
    "latitude": 50.447748591666674,
    "longitude": 30.673120379166672,
    "image_url": "https://img.lun.ua/building-1600x1200/3452.jpg"
  },
  {
    "building_id": 3016,
    "name": "ЖК Артемида",
    "address": "бул. Дарницкий, 8б, 8в",
    "latitude": 50.464861960494005,
    "longitude": 30.609523152932525,
    "image_url": "https://img.lun.ua/building-1600x1200/4134.jpg"
  },
  {
    "building_id": 3019,
    "name": "",
    "address": "ул. Верховинная, 39-41",
    "latitude": 50.45228995000001,
    "longitude": 30.369678725000004,
    "image_url": "https://img.lun.ua/building-1600x1200/3454.jpg"
  },
  {
    "building_id": 3021,
    "name": "ЖК Liberty Estate",
    "address": "пер. Лукьяновский, 3",
    "latitude": 50.463791658438,
    "longitude": 30.501511590559,
    "image_url": "https://img.lun.ua/building-1600x1200/16909.jpg"
  },
  {
    "building_id": 3027,
    "name": "ЖК LAKE HOUSE",
    "address": "ул. Маршала Малиновского, 2а",
    "latitude": 50.504525175572,
    "longitude": 30.488132843748,
    "image_url": "https://img.lun.ua/building-1600x1200/32725.jpg"
  },
  {
    "building_id": 3028,
    "name": "ЖК Гармония",
    "address": "ул. Стуса, 7",
    "latitude": 50.459473729379,
    "longitude": 30.36612988449633,
    "image_url": "https://img.lun.ua/building-1600x1200/20656.jpg"
  },
  {
    "building_id": 3030,
    "name": "ЖК Renaissance Residence",
    "address": "ул. Новоселицкая, 7, 9, 10, ул. Добролюбова, 4",
    "latitude": 50.40882430629014,
    "longitude": 30.555632511153817,
    "image_url": "https://img.lun.ua/building-1600x1200/4260.jpg"
  },
  {
    "building_id": 3032,
    "name": "",
    "address": "пер. Моторный, 11",
    "latitude": 50.37833478228433,
    "longitude": 30.540408389642835,
    "image_url": "https://img.lun.ua/building-1600x1200/20034.jpg"
  },
  {
    "building_id": 3033,
    "name": "",
    "address": "ул. Казимира Малевича (Боженко), 75-77",
    "latitude": 50.42183831824,
    "longitude": 30.516194272786,
    "image_url": "https://img.lun.ua/building-1600x1200/23807.jpg"
  },
  {
    "building_id": 3035,
    "name": "ЖК Garden City Residence",
    "address": "ул. Златоустовская, 30а",
    "latitude": 50.45072278195511,
    "longitude": 30.488288986629673,
    "image_url": "https://img.lun.ua/building-1600x1200/4843.jpg"
  },
  {
    "building_id": 3042,
    "name": "ЖК Академ Парк",
    "address": "бул. Академика Вернадского, 24",
    "latitude": 50.46209731416559,
    "longitude": 30.37528635935587,
    "image_url": "https://img.lun.ua/building-1600x1200/32555.jpg"
  },
  {
    "building_id": 3049,
    "name": "Таунхаус «Городской дом»",
    "address": "ул. Профессора Буйко, 28",
    "latitude": 50.400845135356775,
    "longitude": 30.505892168730497,
    "image_url": "https://img.lun.ua/building-1600x1200/3464.jpg"
  },
  {
    "building_id": 3060,
    "name": "",
    "address": "просп. Комарова, 20а",
    "latitude": 50.439622299999996,
    "longitude": 30.423406075000003,
    "image_url": "https://img.lun.ua/building-1600x1200/3467.jpg"
  },
  {
    "building_id": 3067,
    "name": "Клубный дом «Чорногория»",
    "address": "ул. Черногорская, 14",
    "latitude": 50.40948572319702,
    "longitude": 30.53560391999781,
    "image_url": "https://img.lun.ua/building-1600x1200/3469.jpg"
  },
  {
    "building_id": 3069,
    "name": "",
    "address": "ул. Метрологическая, 18",
    "latitude": 50.341040354817665,
    "longitude": 30.475714824474895,
    "image_url": "https://img.lun.ua/building-1600x1200/4239.jpg"
  },
  {
    "building_id": 3073,
    "name": "ЖК Pechersk Hills Residence",
    "address": "пер. Мичурина, 28-32",
    "latitude": 50.422600185521,
    "longitude": 30.558930555359,
    "image_url": "https://img.lun.ua/building-1600x1200/3480.jpg"
  },
  {
    "building_id": 3079,
    "name": "ЖК Владимирский",
    "address": "ул. Антоновича (Горького), 109",
    "latitude": 50.42287087246787,
    "longitude": 30.51714546047151,
    "image_url": "https://img.lun.ua/building-1600x1200/32634.jpg"
  },
  {
    "building_id": 3082,
    "name": "",
    "address": "ул. Гоголевская, 43",
    "latitude": 50.45463767644189,
    "longitude": 30.493804374709725,
    "image_url": "https://img.lun.ua/building-1600x1200/4139.jpg"
  },
  {
    "building_id": 3089,
    "name": "ЖК Нивки-Парк",
    "address": "просп. Победы, 67",
    "latitude": 50.456352364288,
    "longitude": 30.407886106525,
    "image_url": "https://img.lun.ua/building-1600x1200/5118.jpg"
  },
  {
    "building_id": 3092,
    "name": "ЖК 52 Жемчужина (Pechersk Plaza)",
    "address": "ул. Бойчука (Киквидзе), 17",
    "latitude": 50.412854535915,
    "longitude": 30.550633565423,
    "image_url": "https://img.lun.ua/building-1600x1200/32386.jpg"
  },
  {
    "building_id": 3115,
    "name": "ЖК Вильямс Авеню",
    "address": "ул. Академика Вильямса, 2в",
    "latitude": 50.39056603115483,
    "longitude": 30.46381906606257,
    "image_url": "https://img.lun.ua/building-1600x1200/3492.jpg"
  },
  {
    "building_id": 3128,
    "name": "",
    "address": "бул. Чоколовский, 27б",
    "latitude": 50.43519028992867,
    "longitude": 30.4522711224854,
    "image_url": "https://img.lun.ua/building-1600x1200/4880.jpg"
  },
  {
    "building_id": 3133,
    "name": "",
    "address": "просп. Космонавта Комарова, 46",
    "latitude": 50.43517149563035,
    "longitude": 30.405361969023943,
    "image_url": "https://img.lun.ua/building-1600x1200/4613.jpg"
  },
  {
    "building_id": 3136,
    "name": "",
    "address": "ул. Редутная, 67",
    "latitude": 50.42716349951045,
    "longitude": 30.55944655600797,
    "image_url": "https://img.lun.ua/building-1600x1200/3496.jpg"
  },
  {
    "building_id": 3137,
    "name": "",
    "address": "ул. Данила Щербакивского (Щербакова), 16",
    "latitude": 50.462238,
    "longitude": 30.406275,
    "image_url": "https://img.lun.ua/building-1600x1200/4146.jpg"
  },
  {
    "building_id": 3140,
    "name": "ЖК Соломенская, 20А",
    "address": "ул. Соломенская, 20а",
    "latitude": 50.42289992280402,
    "longitude": 30.47899411059916,
    "image_url": "https://img.lun.ua/building-1600x1200/5396.jpg"
  },
  {
    "building_id": 3150,
    "name": "",
    "address": "ул. Межевая, 23б",
    "latitude": 50.50927235,
    "longitude": 30.4331763,
    "image_url": "https://img.lun.ua/building-1600x1200/3498.jpg"
  },
  {
    "building_id": 3151,
    "name": "ЖК Elyseum",
    "address": "ул. Маршала Рыбалко, 3а",
    "latitude": 50.454348230974965,
    "longitude": 30.48030357884727,
    "image_url": "https://img.lun.ua/building-1600x1200/3499.jpg"
  },
  {
    "building_id": 3157,
    "name": "ЖК Aston Park",
    "address": "ул. Соломенская, 17а",
    "latitude": 50.42429248333334,
    "longitude": 30.479584474999996,
    "image_url": "https://img.lun.ua/building-1600x1200/15434.jpg"
  },
  {
    "building_id": 3163,
    "name": "ЖК L-квартал",
    "address": "бул. Вацлава Гавела (Ивана Лепсе), 6ж",
    "latitude": 50.44759599910473,
    "longitude": 30.421015340834856,
    "image_url": "https://img.lun.ua/building-1600x1200/5254.jpg"
  },
  {
    "building_id": 3169,
    "name": "ЖК SOLAR CITY",
    "address": "пл. Святошинская, 1",
    "latitude": 50.458494858897,
    "longitude": 30.3632988967,
    "image_url": "https://img.lun.ua/building-1600x1200/27157.jpg"
  },
  {
    "building_id": 3183,
    "name": "",
    "address": "просп. Науки, 58/1",
    "latitude": 50.380350678105,
    "longitude": 30.533152961279,
    "image_url": "https://img.lun.ua/building-1600x1200/3507.jpg"
  },
  {
    "building_id": 3199,
    "name": "ЖК Skyland",
    "address": "пер. Московский, 2а, 2б",
    "latitude": 50.390832224814,
    "longitude": 30.460972795263,
    "image_url": "https://img.lun.ua/building-1600x1200/4614.jpg"
  },
  {
    "building_id": 3201,
    "name": "ЖК ObolonSky",
    "address": "просп. Оболонский, 1",
    "latitude": 50.499860474593,
    "longitude": 30.497423383293,
    "image_url": "https://img.lun.ua/building-1600x1200/16864.jpg"
  },
  {
    "building_id": 3203,
    "name": "ЖК Саксаганский",
    "address": "ул. Саксаганского, 70а",
    "latitude": 50.43969863437917,
    "longitude": 30.502862194553018,
    "image_url": "https://img.lun.ua/building-1600x1200/3509.jpg"
  },
  {
    "building_id": 3208,
    "name": "",
    "address": "ул. Толбухина, 43а, 43б",
    "latitude": 50.46706492377955,
    "longitude": 30.41924969293177,
    "image_url": "https://img.lun.ua/building-1600x1200/17438.jpg"
  },
  {
    "building_id": 3211,
    "name": "",
    "address": "ул. Трахтемировская, 13/1",
    "latitude": 50.37094205984351,
    "longitude": 30.539058605208993,
    "image_url": "https://img.lun.ua/building-1600x1200/3532.jpg"
  },
  {
    "building_id": 3215,
    "name": "КГ Sunlife",
    "address": "ул. Павла Потоцкого (Комсомольская), 106",
    "latitude": 50.394869,
    "longitude": 30.447028000000046,
    "image_url": "https://img.lun.ua/building-1600x1200/3535.jpg"
  },
  {
    "building_id": 3216,
    "name": "ЖК Голосеевский квартал",
    "address": "ул. Академика Вильямса, 8в",
    "latitude": 50.390114862123,
    "longitude": 30.462862411518,
    "image_url": "https://img.lun.ua/building-1600x1200/4240.jpg"
  },
  {
    "building_id": 3222,
    "name": "ЖК Наш будинок",
    "address": "просп. Победы, 71а",
    "latitude": 50.4570924156708,
    "longitude": 30.401254109655724,
    "image_url": "https://img.lun.ua/building-1600x1200/4619.jpg"
  },
  {
    "building_id": 3228,
    "name": "ЖК Новомостицкий",
    "address": "ул. Новомостицкая, 15",
    "latitude": 50.49930793522,
    "longitude": 30.442204037682,
    "image_url": "https://img.lun.ua/building-1600x1200/5156.jpg"
  },
  {
    "building_id": 3242,
    "name": "Клубный дом New York",
    "address": "ул. Редутная, 60",
    "latitude": 50.426817361289,
    "longitude": 30.55789227742,
    "image_url": "https://img.lun.ua/building-1600x1200/3555.jpg"
  },
  {
    "building_id": 3252,
    "name": "ЖК Милославский",
    "address": "ул. Милославская, 31в",
    "latitude": 50.53169538333333,
    "longitude": 30.606507466666667,
    "image_url": "https://img.lun.ua/building-1600x1200/2695.jpg"
  },
  {
    "building_id": 3292,
    "name": "ЖК Стиль",
    "address": "ул. Анри Барбюса, 5б",
    "latitude": 50.42777339292229,
    "longitude": 30.522294798865914,
    "image_url": "https://img.lun.ua/building-1600x1200/3562.jpg"
  },
  {
    "building_id": 3338,
    "name": "",
    "address": "ул. Сечевых Стрельцов (Артема), 82",
    "latitude": 50.458077780393005,
    "longitude": 30.488160252571106,
    "image_url": "https://img.lun.ua/building-1600x1200/3568.jpg"
  },
  {
    "building_id": 3339,
    "name": "ЖК Защитник",
    "address": "ул. Бориспольская, 19",
    "latitude": 50.423680118586,
    "longitude": 30.697568827429,
    "image_url": "https://img.lun.ua/building-1600x1200/15529.jpg"
  },
  {
    "building_id": 3342,
    "name": "",
    "address": "ул. Белицкая, 108а",
    "latitude": 50.49134985892,
    "longitude": 30.426082890897,
    "image_url": "https://img.lun.ua/building-1600x1200/3571.jpg"
  },
  {
    "building_id": 3361,
    "name": "ЖК Edelweiss House",
    "address": "ул. Зверинецкая, 72",
    "latitude": 50.404866999693,
    "longitude": 30.553594134351,
    "image_url": "https://img.lun.ua/building-1600x1200/28668.jpg"
  },
  {
    "building_id": 3381,
    "name": "ЖК Сырецкий парк",
    "address": "ул. Ясногорская, 16а",
    "latitude": 50.481417590283,
    "longitude": 30.438880193979,
    "image_url": "https://img.lun.ua/building-1600x1200/26100.jpg"
  },
  {
    "building_id": 3382,
    "name": "ЖК Goloseev Hills",
    "address": "ул. Казацкая, 55а",
    "latitude": 50.402959954595,
    "longitude": 30.502213099971,
    "image_url": "https://img.lun.ua/building-1600x1200/36741.jpg"
  },
  {
    "building_id": 3384,
    "name": "ЖК Домино",
    "address": "ул. Фанерная, 5",
    "latitude": 50.43002734,
    "longitude": 30.633839010000003,
    "image_url": "https://img.lun.ua/building-1600x1200/3588.jpg"
  },
  {
    "building_id": 3390,
    "name": "",
    "address": "ул. Иоанна Павла ІІ (Патриса Лумумбы), 11",
    "latitude": 50.42087827759916,
    "longitude": 30.532597163692117,
    "image_url": "https://img.lun.ua/building-1600x1200/5627.jpg"
  },
  {
    "building_id": 3394,
    "name": "ЖК Метрополия",
    "address": "ул. Каменская (Днепродзержинская), 128-130",
    "latitude": 50.40504664193141,
    "longitude": 30.66978625394404,
    "image_url": "https://img.lun.ua/building-1600x1200/24388.jpg"
  },
  {
    "building_id": 3400,
    "name": "ЖК Автограф",
    "address": "ул. Генерала Жмаченко, 28",
    "latitude": 50.47012353809,
    "longitude": 30.61091412368,
    "image_url": "https://img.lun.ua/building-1600x1200/31267.jpg"
  },
  {
    "building_id": 3403,
    "name": "ЖК Busov Hill",
    "address": "ул. Бусловская, 12",
    "latitude": 50.40753921754,
    "longitude": 30.55683012659,
    "image_url": "https://img.lun.ua/building-1600x1200/35306.jpg"
  },
  {
    "building_id": 3404,
    "name": "ЖК UNO City House",
    "address": "ул. Елены Телиги, 25",
    "latitude": 50.47573455,
    "longitude": 30.448303974999998,
    "image_url": "https://img.lun.ua/building-1600x1200/36708.png"
  },
  {
    "building_id": 3454,
    "name": "Клубный дом «Гоголевская, 47»",
    "address": "ул. Гоголевская, 47",
    "latitude": 50.455168779392984,
    "longitude": 30.494028339116312,
    "image_url": "https://img.lun.ua/building-1600x1200/18737.jpg"
  },
  {
    "building_id": 3486,
    "name": "ЖК PARKLAND",
    "address": "ул. Практичная, 1",
    "latitude": 50.39588803616243,
    "longitude": 30.46912243589759,
    "image_url": "https://img.lun.ua/building-1600x1200/30069.jpg"
  },
  {
    "building_id": 3494,
    "name": "ЖК Львовский квартал",
    "address": "ул. Глубочицкая, 13",
    "latitude": 50.462275010303,
    "longitude": 30.488508497836,
    "image_url": "https://img.lun.ua/building-1600x1200/20073.jpg"
  },
  {
    "building_id": 3496,
    "name": "ЖК Рубин",
    "address": "пер. Любарский, 2а",
    "latitude": 50.4197759,
    "longitude": 30.62273735,
    "image_url": ""
  },
  {
    "building_id": 3501,
    "name": "ЖК Кристер Град",
    "address": "ул. Межевая / просп. Правды / ул. Маршала Гречко",
    "latitude": 50.49809084760124,
    "longitude": 30.427696104519644,
    "image_url": "https://img.lun.ua/building-1600x1200/11547.jpg"
  },
  {
    "building_id": 3512,
    "name": "КГ Riverside Family Club",
    "address": "ул. Днепровская",
    "latitude": 50.34184522216258,
    "longitude": 30.615509189665318,
    "image_url": "https://img.lun.ua/building-1600x1200/3618.jpg"
  },
  {
    "building_id": 3523,
    "name": "ЖК Rainbow House",
    "address": "ул. Радужная, 44",
    "latitude": 50.478306053988916,
    "longitude": 30.58889807201922,
    "image_url": "https://img.lun.ua/building-1600x1200/3627.jpg"
  },
  {
    "building_id": 3526,
    "name": "",
    "address": "Андреевский спуск, 30-34в",
    "latitude": 50.45953093284637,
    "longitude": 30.51669971086085,
    "image_url": "https://img.lun.ua/building-1600x1200/3631.jpg"
  },
  {
    "building_id": 3534,
    "name": "ЖК Верховина",
    "address": "просп. Победы, 109",
    "latitude": 50.45587818333333,
    "longitude": 30.3735583,
    "image_url": "https://img.lun.ua/building-1600x1200/18953.jpg"
  },
  {
    "building_id": 3538,
    "name": "ЖК Новомостицко-Замковецкий",
    "address": "ул. Замковецкая, ул. Новомостицкая",
    "latitude": 50.4967510134489,
    "longitude": 30.43985597878668,
    "image_url": "https://img.lun.ua/building-1600x1200/21390.jpg"
  },
  {
    "building_id": 3539,
    "name": "ЖК Ярославов Град",
    "address": "ул. Бульварно-Кудрявская (Воровского), 15а",
    "latitude": 50.45226984265292,
    "longitude": 30.503045534715056,
    "image_url": "https://img.lun.ua/building-1600x1200/21000.jpg"
  },
  {
    "building_id": 3540,
    "name": "ЖК Эврика",
    "address": "ул. Академика Глушкова, 6",
    "latitude": 50.381815742788,
    "longitude": 30.466757672101,
    "image_url": "https://img.lun.ua/building-1600x1200/5046.jpg"
  },
  {
    "building_id": 3550,
    "name": "ЖК Jack House",
    "address": "бул. Леси Украинки, 7-9, ул. Первомайского, 8",
    "latitude": 50.43412419999999,
    "longitude": 30.532052816666663,
    "image_url": "https://img.lun.ua/building-1600x1200/28070.jpg"
  },
  {
    "building_id": 3557,
    "name": "ЖК Лейпцигская",
    "address": "ул. Лейпцигская, 13",
    "latitude": 50.431240683333336,
    "longitude": 30.549335600000003,
    "image_url": "https://img.lun.ua/building-1600x1200/5134.jpg"
  },
  {
    "building_id": 3595,
    "name": "ЖК Фортеця",
    "address": "ул. Красицкого, 58",
    "latitude": 50.520598922863115,
    "longitude": 30.436006793752313,
    "image_url": "https://img.lun.ua/building-1600x1200/3635.jpg"
  },
  {
    "building_id": 3642,
    "name": "ЖК Sherwood",
    "address": "ул. Авиаконструктора Антонова, 4а",
    "latitude": 50.430273120541,
    "longitude": 30.463534784607,
    "image_url": "https://img.lun.ua/building-1600x1200/3641.jpg"
  },
  {
    "building_id": 3707,
    "name": "ЖК Дом на Строителей",
    "address": "ул. Строителей, 30",
    "latitude": 50.45143258020088,
    "longitude": 30.614051828160882,
    "image_url": "https://img.lun.ua/building-1600x1200/3662.jpg"
  },
  {
    "building_id": 3918,
    "name": "ЖК Delmar",
    "address": "ул. Драгомирова, 4б",
    "latitude": 50.41172937865775,
    "longitude": 30.54467380978167,
    "image_url": "https://img.lun.ua/building-1600x1200/21734.jpg"
  },
  {
    "building_id": 3961,
    "name": "ЖК Волгоградский",
    "address": "ул. Волгоградская, 25а",
    "latitude": 50.424384390121,
    "longitude": 30.493624797573,
    "image_url": "https://img.lun.ua/building-1600x1200/3663.jpg"
  },
  {
    "building_id": 3967,
    "name": "ЖК Ярославский на Подоле",
    "address": "пер. Ярославский, 1/3",
    "latitude": 50.46637212499999,
    "longitude": 30.508018625,
    "image_url": "https://img.lun.ua/building-1600x1200/3671.jpg"
  },
  {
    "building_id": 3978,
    "name": "Loft House Podol",
    "address": "ул. Межигорская, 78",
    "latitude": 50.475377268869,
    "longitude": 30.502718312409,
    "image_url": "https://img.lun.ua/building-1600x1200/3672.jpg"
  },
  {
    "building_id": 3979,
    "name": "ЖК Голосеевские сады",
    "address": "ул. Академика Кащенко, 113",
    "latitude": 50.37196217038303,
    "longitude": 30.53330759702476,
    "image_url": "https://img.lun.ua/building-1600x1200/15655.jpg"
  },
  {
    "building_id": 3987,
    "name": "ЖК Эко Таун",
    "address": "ул. Стеценко, 30",
    "latitude": 50.49617113126809,
    "longitude": 30.373476454988122,
    "image_url": "https://img.lun.ua/building-1600x1200/3681.jpg"
  },
  {
    "building_id": 3988,
    "name": "ЖК Воздухофлотский квартал",
    "address": "ул. Шолуденко, 1а",
    "latitude": 50.451135596481,
    "longitude": 30.476372650425,
    "image_url": "https://img.lun.ua/building-1600x1200/5365.jpg"
  },
  {
    "building_id": 3989,
    "name": "ЖК Французский квартал 2",
    "address": "ул. Большая Васильковская, 139",
    "latitude": 50.415231556333175,
    "longitude": 30.525509733706713,
    "image_url": "https://img.lun.ua/building-1600x1200/31000.jpg"
  },
  {
    "building_id": 3990,
    "name": "ЖК Victory V",
    "address": "просп. Победы, 5Б",
    "latitude": 50.44638775297,
    "longitude": 30.48688963987,
    "image_url": "https://img.lun.ua/building-1600x1200/20258.jpg"
  },
  {
    "building_id": 3992,
    "name": "",
    "address": "ул. Краковская, 27а",
    "latitude": 50.45765343507155,
    "longitude": 30.63081027008593,
    "image_url": "https://img.lun.ua/building-1600x1200/25412.jpg"
  },
  {
    "building_id": 3993,
    "name": "Варшавский Микрорайон",
    "address": "просп. Правды / ул. Маршала Гречко",
    "latitude": 50.50133149239744,
    "longitude": 30.425260236625036,
    "image_url": "https://img.lun.ua/building-1600x1200/20516.jpg"
  },
  {
    "building_id": 4007,
    "name": "Клубный дом «На Левадной»",
    "address": "Бортничи, ул. Левадная, 56",
    "latitude": 50.363527935311,
    "longitude": 30.675842631608,
    "image_url": "https://img.lun.ua/building-1600x1200/3686.jpg"
  },
  {
    "building_id": 4028,
    "name": "ЖК Прибалтийский",
    "address": "ул. Рижская, 19а",
    "latitude": 50.472229326243,
    "longitude": 30.438733451439,
    "image_url": "https://img.lun.ua/building-1600x1200/3690.jpg"
  },
  {
    "building_id": 4029,
    "name": "ул. Армянская, 6",
    "address": "ул. Армянская, 6а",
    "latitude": 50.405908075,
    "longitude": 30.670834775,
    "image_url": "https://img.lun.ua/building-1600x1200/5379.jpg"
  },
  {
    "building_id": 4038,
    "name": "ЖК Космополитен",
    "address": "ул. Дегтяревская, 25а",
    "latitude": 50.4617639,
    "longitude": 30.45220127368421,
    "image_url": "https://img.lun.ua/building-1600x1200/3692.jpg"
  },
  {
    "building_id": 4044,
    "name": "ЖК Метрополис",
    "address": "ул. Академика Заболотного, 1",
    "latitude": 50.371045064734,
    "longitude": 30.461063708063,
    "image_url": "https://img.lun.ua/building-1600x1200/20208.jpg"
  },
  {
    "building_id": 4058,
    "name": "ЖК Галактика",
    "address": "ул. Евгения Сверстюка (Марины Расковой), 4",
    "latitude": 50.447278592247,
    "longitude": 30.601753843348,
    "image_url": "https://img.lun.ua/building-1600x1200/31797.jpg"
  },
  {
    "building_id": 4062,
    "name": "ЖК Signature",
    "address": "ул. Мечникова, 11а",
    "latitude": 50.43866938726727,
    "longitude": 30.53553552366793,
    "image_url": "https://img.lun.ua/building-1600x1200/33520.jpg"
  },
  {
    "building_id": 4078,
    "name": "ЖК Троицкий",
    "address": "пер. Армянский, 17",
    "latitude": 50.410763625083,
    "longitude": 30.674203047529,
    "image_url": "https://img.lun.ua/building-1600x1200/3705.jpg"
  },
  {
    "building_id": 4126,
    "name": "",
    "address": "просп. Отрадный, 2 (просп. Комарова, 1)",
    "latitude": 50.43635157999999,
    "longitude": 30.434336860000002,
    "image_url": "https://img.lun.ua/building-1600x1200/3729.jpg"
  },
  {
    "building_id": 4130,
    "name": "",
    "address": "ул. Петра Калнышевского (Майорова), 6",
    "latitude": 50.523702557470756,
    "longitude": 30.46727598644793,
    "image_url": "https://img.lun.ua/building-1600x1200/3730.jpg"
  },
  {
    "building_id": 4151,
    "name": "ЖК Харьковский",
    "address": "Харьковское шоссе, 210",
    "latitude": 50.40661585714285,
    "longitude": 30.674647200000003,
    "image_url": "https://img.lun.ua/building-1600x1200/23661.jpg"
  },
  {
    "building_id": 4193,
    "name": "ЖК Bergen",
    "address": "ул. Полковника Потехина, 9",
    "latitude": 50.37981205,
    "longitude": 30.491439233333335,
    "image_url": "https://img.lun.ua/building-1600x1200/3733.jpg"
  },
  {
    "building_id": 4197,
    "name": "ЖК Славутич",
    "address": "ул. Заречная, 16",
    "latitude": 50.394866804165,
    "longitude": 30.603991471739,
    "image_url": "https://img.lun.ua/building-1600x1200/30998.jpg"
  },
  {
    "building_id": 4202,
    "name": "ЖК Люксембургский",
    "address": "ул. Гаврилюка, 77",
    "latitude": 50.41354289173214,
    "longitude": 30.485483407974243,
    "image_url": "https://img.lun.ua/building-1600x1200/3736.jpg"
  },
  {
    "building_id": 4203,
    "name": "ЖК Вышиванка",
    "address": "ул. Приорская (Полупанова), 16",
    "latitude": 50.50873074916875,
    "longitude": 30.456569949164987,
    "image_url": "https://img.lun.ua/building-1600x1200/4827.jpg"
  },
  {
    "building_id": 4219,
    "name": "ЖК Adamant",
    "address": "ул. Липковского, 35",
    "latitude": 50.431811001609,
    "longitude": 30.477397782242,
    "image_url": "https://img.lun.ua/building-1600x1200/24359.jpg"
  },
  {
    "building_id": 4222,
    "name": "ЖК Парковая Долина",
    "address": "ул. Паисия Кайсарова, 7/9",
    "latitude": 50.397693825,
    "longitude": 30.48486281,
    "image_url": "https://img.lun.ua/building-1600x1200/30910.jpg"
  },
  {
    "building_id": 4225,
    "name": "",
    "address": "ул. Милославская, 18",
    "latitude": 50.53334554544085,
    "longitude": 30.597174782305956,
    "image_url": "https://img.lun.ua/building-1600x1200/3742.jpg"
  },
  {
    "building_id": 4226,
    "name": "",
    "address": "пер. Платоновский, 6",
    "latitude": 50.436925173324454,
    "longitude": 30.48519984818995,
    "image_url": "https://img.lun.ua/building-1600x1200/20035.jpg"
  },
  {
    "building_id": 4242,
    "name": "ЖК 4U",
    "address": "ул. Академика Булаховского, 2 (ул. Генерала Наумова / просп. Академика Палладина)",
    "latitude": 50.473723545366,
    "longitude": 30.354676909841,
    "image_url": "https://img.lun.ua/building-1600x1200/26071.jpg"
  },
  {
    "building_id": 4250,
    "name": "",
    "address": "ул. Андрея Аболмасова (Панельная), 2",
    "latitude": 50.4599962394945,
    "longitude": 30.585645893588662,
    "image_url": "https://img.lun.ua/building-1600x1200/4870.jpg"
  },
  {
    "building_id": 4251,
    "name": "ЖК Драгоманова",
    "address": "ул. Драгоманова, 35",
    "latitude": 50.40673288580869,
    "longitude": 30.636774161830544,
    "image_url": "https://img.lun.ua/building-1600x1200/4856.jpg"
  },
  {
    "building_id": 4257,
    "name": "ЖК Ривьера",
    "address": "ул. Малоземельная, 75",
    "latitude": 50.392255660259,
    "longitude": 30.602272387477,
    "image_url": "https://img.lun.ua/building-1600x1200/4174.jpg"
  },
  {
    "building_id": 4261,
    "name": "ЖК Smart House",
    "address": "ул. Машиностроительная, 39",
    "latitude": 50.44931352121243,
    "longitude": 30.42180005457294,
    "image_url": "https://img.lun.ua/building-1600x1200/5675.jpg"
  },
  {
    "building_id": 4263,
    "name": "",
    "address": "ул. Горловская, 215а, 215б, 215в",
    "latitude": 50.407336321735436,
    "longitude": 30.67306788638234,
    "image_url": "https://img.lun.ua/building-1600x1200/4915.jpg"
  },
  {
    "building_id": 4305,
    "name": "ЖК Выгуровщина-20",
    "address": "ул. Николая Закревского, 101, 101а, 101б",
    "latitude": 50.532274865505,
    "longitude": 30.623433608562,
    "image_url": "https://img.lun.ua/building-1600x1200/27285.jpg"
  },
  {
    "building_id": 4315,
    "name": "ЖК New York Concept House",
    "address": "ул. Антоновича (Горького), 74-78",
    "latitude": 50.426126275,
    "longitude": 30.5139883,
    "image_url": "https://img.lun.ua/building-1600x1200/28171.jpg"
  },
  {
    "building_id": 4319,
    "name": "ЖК Campus",
    "address": "ул. Полевая, 38",
    "latitude": 50.441510219174276,
    "longitude": 30.44909270480275,
    "image_url": "https://img.lun.ua/building-1600x1200/35681.jpg"
  },
  {
    "building_id": 4320,
    "name": "ЖК Sundance",
    "address": "ул. Никольско-Слободская, 7-9",
    "latitude": 50.456672393143556,
    "longitude": 30.583913940936327,
    "image_url": "https://img.lun.ua/building-1600x1200/3754.jpg"
  },
  {
    "building_id": 4322,
    "name": "ЖК Голосеевский дворик",
    "address": "ул. Володи Дубинина, 2а",
    "latitude": 50.39024254444444,
    "longitude": 30.497313533333333,
    "image_url": "https://img.lun.ua/building-1600x1200/4883.jpg"
  },
  {
    "building_id": 4368,
    "name": "",
    "address": "ул. Семьи Сосниных, 4а",
    "latitude": 50.42437493333333,
    "longitude": 30.3936468,
    "image_url": "https://img.lun.ua/building-1600x1200/31604.jpg"
  },
  {
    "building_id": 4369,
    "name": "",
    "address": "ул. Старонаводницкая, 2-20",
    "latitude": 50.42635061836734,
    "longitude": 30.545225610204085,
    "image_url": "https://img.lun.ua/building-1600x1200/3771.jpg"
  },
  {
    "building_id": 4370,
    "name": "ЖК West House",
    "address": "ул. Кустанайская, 13",
    "latitude": 50.406096743096,
    "longitude": 30.510913853512,
    "image_url": "https://img.lun.ua/building-1600x1200/20476.jpg"
  },
  {
    "building_id": 4398,
    "name": "ЖК Skyland 2",
    "address": "ул. Сергея Колоса (Ленина), 2а, 2б",
    "latitude": 50.39195097861306,
    "longitude": 30.458929432152217,
    "image_url": "https://img.lun.ua/building-1600x1200/4156.jpg"
  },
  {
    "building_id": 4400,
    "name": "ЖК Камертон",
    "address": "ул. Речная, 4",
    "latitude": 50.454059131971,
    "longitude": 30.487397479878,
    "image_url": "https://img.lun.ua/building-1600x1200/24453.jpg"
  },
  {
    "building_id": 4402,
    "name": "ЖК Bristol Comfort House",
    "address": "просп. Валерия Лобановского (Краснозвездный), 146-б",
    "latitude": 50.407077471184,
    "longitude": 30.506754136231,
    "image_url": "https://img.lun.ua/building-1600x1200/20736.jpg"
  },
  {
    "building_id": 4410,
    "name": "ЖК Кирилловский Гай",
    "address": "ул. Багговутовская, 1а",
    "latitude": 50.47444288063282,
    "longitude": 30.468349322668473,
    "image_url": "https://img.lun.ua/building-1600x1200/29063.jpg"
  },
  {
    "building_id": 4414,
    "name": "ЖК Новопечерский Квартал №5",
    "address": "пер. Новопечерский, 5",
    "latitude": 50.423567416922,
    "longitude": 30.529805951776,
    "image_url": "https://img.lun.ua/building-1600x1200/23920.jpg"
  },
  {
    "building_id": 4421,
    "name": "ЖК Гвардейский",
    "address": "ул. Генерала Алмазова (Кутузова), 18/7",
    "latitude": 50.42609970833334,
    "longitude": 30.536355525,
    "image_url": "https://img.lun.ua/building-1600x1200/25469.jpg"
  },
  {
    "building_id": 4424,
    "name": "ЖК Пектораль",
    "address": "бул. Кольцова, 7а",
    "latitude": 50.4190307125,
    "longitude": 30.385875462500003,
    "image_url": "https://img.lun.ua/building-1600x1200/24694.jpg"
  },
  {
    "building_id": 4440,
    "name": "ЖК KyivSky",
    "address": "ул. Семьи Кульженков (Петра Дегтяренко), 22",
    "latitude": 50.515712090937,
    "longitude": 30.467910619759,
    "image_url": "https://img.lun.ua/building-1600x1200/31237.jpg"
  },
  {
    "building_id": 4444,
    "name": "ЖК Маєток «Желань»",
    "address": "ул. Трублаини, 18",
    "latitude": 50.408087187907,
    "longitude": 30.410930779763,
    "image_url": "https://img.lun.ua/building-1600x1200/3779.jpg"
  },
  {
    "building_id": 4446,
    "name": "ЖК Teleskop",
    "address": "ул. Драгоманова, 10",
    "latitude": 50.414108007015,
    "longitude": 30.63626626741,
    "image_url": "https://img.lun.ua/building-1600x1200/28511.jpg"
  },
  {
    "building_id": 4461,
    "name": "ЖК LIKO-GRAD Perfect Town",
    "address": "ул. Михаила Максимовича (Онуфрия Трутенко), 32",
    "latitude": 50.391699943776,
    "longitude": 30.466794044913,
    "image_url": ""
  },
  {
    "building_id": 4464,
    "name": "ЖК Династия",
    "address": "ул. Липковского, 37г",
    "latitude": 50.431040659252,
    "longitude": 30.477179506794,
    "image_url": "https://img.lun.ua/building-1600x1200/28441.png"
  },
  {
    "building_id": 4466,
    "name": "ЖК Злагода",
    "address": "ул. Архитектора Вербицкого, 1",
    "latitude": 50.412706218077,
    "longitude": 30.65360577777,
    "image_url": "https://img.lun.ua/building-1600x1200/25893.jpg"
  },
  {
    "building_id": 4471,
    "name": "ЖК Welcome Home на Стеценко",
    "address": "ул. Стеценко, 75",
    "latitude": 50.495762490779,
    "longitude": 30.368990498689,
    "image_url": "https://img.lun.ua/building-1600x1200/4291.jpg"
  },
  {
    "building_id": 4515,
    "name": "ЖК Новая Англия",
    "address": "ул. Михаила Максимовича (Трутенко), 24",
    "latitude": 50.39398720329682,
    "longitude": 30.473860625226735,
    "image_url": "https://img.lun.ua/building-1600x1200/24263.jpg"
  },
  {
    "building_id": 4516,
    "name": "ЖК Покрова",
    "address": "ул. Сечевых Стрельцов (Артема), 59",
    "latitude": 50.45495241003591,
    "longitude": 30.491696694865823,
    "image_url": "https://img.lun.ua/building-1600x1200/5387.jpg"
  },
  {
    "building_id": 4541,
    "name": "ЖК Рідне місто",
    "address": "ул. Качалова, 40 (бул. Вацлава Гавела, 28)",
    "latitude": 50.428822795795845,
    "longitude": 30.415321005006717,
    "image_url": "https://img.lun.ua/building-1600x1200/5157.jpg"
  },
  {
    "building_id": 4555,
    "name": "",
    "address": "ул. Майбороды, 25б",
    "latitude": 50.46828754755,
    "longitude": 30.478671720787,
    "image_url": "https://img.lun.ua/building-1600x1200/3781.jpg"
  },
  {
    "building_id": 4562,
    "name": "Клубный дом «Дмитриевская, 60/19»",
    "address": "ул. Дмитриевская, 60/19",
    "latitude": 50.45228072857143,
    "longitude": 30.489308228571435,
    "image_url": "https://img.lun.ua/building-1600x1200/24340.png"
  },
  {
    "building_id": 4567,
    "name": "ЖК Район",
    "address": "ул. Лисковская, 24",
    "latitude": 50.52811465617529,
    "longitude": 30.593710402026772,
    "image_url": "https://img.lun.ua/building-1600x1200/2705.jpg"
  },
  {
    "building_id": 4579,
    "name": "ЖК Акцент",
    "address": "просп. Академика Глушкова, 9б",
    "latitude": 50.370540029581,
    "longitude": 30.46653483063,
    "image_url": "https://img.lun.ua/building-1600x1200/3783.jpg"
  },
  {
    "building_id": 4582,
    "name": "Клубный дом The Garden",
    "address": "ул. Бусловская, 15",
    "latitude": 50.40689357504716,
    "longitude": 30.557400891557336,
    "image_url": "https://img.lun.ua/building-1600x1200/28313.jpg"
  },
  {
    "building_id": 4610,
    "name": "КГ Пуща Residence",
    "address": "ул. Квитки Цисык, 64",
    "latitude": 50.551775266822,
    "longitude": 30.340976257362,
    "image_url": "https://img.lun.ua/building-1600x1200/3793.jpg"
  },
  {
    "building_id": 4634,
    "name": "Таунхаус «Городской дом 2»",
    "address": "пер. Пролетарский, 19",
    "latitude": 50.406899558514,
    "longitude": 30.496447244659,
    "image_url": "https://img.lun.ua/building-1600x1200/17391.jpg"
  },
  {
    "building_id": 4637,
    "name": "ЖК Podil Plaza & Residence",
    "address": "ул. Глубочицкая, 73-77",
    "latitude": 50.463426638636776,
    "longitude": 30.50344423390925,
    "image_url": "https://img.lun.ua/building-1600x1200/25040.jpg"
  },
  {
    "building_id": 4646,
    "name": "Клубный дом «Тихая гавань»",
    "address": "ул. Набережно-Корчеватская, 27",
    "latitude": 50.37130497072123,
    "longitude": 30.551623786759592,
    "image_url": "https://img.lun.ua/building-1600x1200/3821.jpg"
  },
  {
    "building_id": 4649,
    "name": "ЖК RichHouse",
    "address": "ул. Столетова, 50, 50а, 52",
    "latitude": 50.397927486149,
    "longitude": 30.540959704667,
    "image_url": "https://img.lun.ua/building-1600x1200/18624.jpg"
  },
  {
    "building_id": 4663,
    "name": "ЖК Отрадный",
    "address": "ул. Академика Каблукова, 23",
    "latitude": 50.436825232164246,
    "longitude": 30.408289600163698,
    "image_url": "https://img.lun.ua/building-1600x1200/16480.jpg"
  },
  {
    "building_id": 4672,
    "name": "ЖК Cardinal",
    "address": "ул. Анри Барбюса, 28а",
    "latitude": 50.42480699289268,
    "longitude": 30.52244679071009,
    "image_url": "https://img.lun.ua/building-1600x1200/18652.jpg"
  },
  {
    "building_id": 4678,
    "name": "ЖК Welcome Home на Ревуцкого",
    "address": "ул. Ревуцкого, 48",
    "latitude": 50.39412783767704,
    "longitude": 30.65154761078736,
    "image_url": "https://img.lun.ua/building-1600x1200/5214.jpg"
  },
  {
    "building_id": 4686,
    "name": "ЖК Чаривне Мисто",
    "address": "ул. Бориспольская, 18-26",
    "latitude": 50.411580649795,
    "longitude": 30.697344020009,
    "image_url": "https://img.lun.ua/building-1600x1200/28656.jpg"
  },
  {
    "building_id": 4687,
    "name": "ЖК Manhattan city",
    "address": "просп. Победы, ул. Борщаговская",
    "latitude": 50.44806256380503,
    "longitude": 30.479934542429625,
    "image_url": "https://img.lun.ua/building-1600x1200/20554.jpg"
  },
  {
    "building_id": 4690,
    "name": "ЖК Оболонь Плаза Парк",
    "address": "ул. Маршала Малиновского / просп. Оболонский",
    "latitude": 50.501004642067,
    "longitude": 30.4990770109,
    "image_url": "https://img.lun.ua/building-1600x1200/32694.jpg"
  },
  {
    "building_id": 4691,
    "name": "ЖК Smart сity",
    "address": "",
    "latitude": 0,
    "longitude": 0,
    "image_url": "https://img.lun.ua/building-1600x1200/3824.jpg"
  },
  {
    "building_id": 4692,
    "name": "ЖК Квартал Европейский",
    "address": "",
    "latitude": 0,
    "longitude": 0,
    "image_url": "https://img.lun.ua/building-1600x1200/3829.jpg"
  },
  {
    "building_id": 4694,
    "name": "ЖК Каховская",
    "address": "ул. Каховская, 60",
    "latitude": 50.46253066638972,
    "longitude": 30.592614198994852,
    "image_url": "https://img.lun.ua/building-1600x1200/18313.jpg"
  },
  {
    "building_id": 4700,
    "name": "",
    "address": "ул. Кирилловская / ул. Нижнеюрковская",
    "latitude": 50.469746370379,
    "longitude": 30.499982303562,
    "image_url": "https://img.lun.ua/building-1600x1200/3840.jpg"
  },
  {
    "building_id": 4709,
    "name": "Клубный дом «Печерский»",
    "address": "ул. Менделеева, 12",
    "latitude": 50.410398684427,
    "longitude": 30.53427672945,
    "image_url": "https://img.lun.ua/building-1600x1200/3851.jpg"
  },
  {
    "building_id": 4710,
    "name": "ЖД Light house",
    "address": "ул. Радужная, 50",
    "latitude": 50.47757977146838,
    "longitude": 30.588993290439248,
    "image_url": "https://img.lun.ua/building-1600x1200/3853.jpg"
  },
  {
    "building_id": 4711,
    "name": "ЖК SloveSky",
    "address": "ул. Славская, 58",
    "latitude": 50.52977805350474,
    "longitude": 30.59016388308789,
    "image_url": "https://img.lun.ua/building-1600x1200/3855.jpg"
  },
  {
    "building_id": 4713,
    "name": "",
    "address": "ул. Кондукторская, 40",
    "latitude": 50.4292796354,
    "longitude": 30.498918658571,
    "image_url": "https://img.lun.ua/building-1600x1200/3859.jpg"
  },
  {
    "building_id": 4726,
    "name": "ЖК Островский",
    "address": "",
    "latitude": 0,
    "longitude": 0,
    "image_url": "https://img.lun.ua/building-1600x1200/3861.jpg"
  },
  {
    "building_id": 4727,
    "name": "Клубный дом Spas Sky",
    "address": "ул. Спасская, 35",
    "latitude": 50.46930909564237,
    "longitude": 30.522074857726693,
    "image_url": "https://img.lun.ua/building-1600x1200/21342.jpg"
  },
  {
    "building_id": 4728,
    "name": "ЖК Обериг-2",
    "address": "ул. Бориспольская, 30а, 40",
    "latitude": 50.422736530769235,
    "longitude": 30.693009992307687,
    "image_url": "https://img.lun.ua/building-1600x1200/25911.jpg"
  },
  {
    "building_id": 4740,
    "name": "ЖК Дипломат",
    "address": "ул. Гоголевская, 44-46",
    "latitude": 50.45535065059981,
    "longitude": 30.494566122069955,
    "image_url": "https://img.lun.ua/building-1600x1200/26754.jpg"
  },
  {
    "building_id": 4746,
    "name": "ЖК Chicago Central House",
    "address": "ул. Антоновича (Горького), 44",
    "latitude": 50.43363644253682,
    "longitude": 30.513030448928475,
    "image_url": "https://img.lun.ua/building-1600x1200/20771.jpg"
  },
  {
    "building_id": 4748,
    "name": "ЖК FREEDOM",
    "address": "просп. Броварской / просп. Освободителей",
    "latitude": 50.455036875000005,
    "longitude": 30.606259062499998,
    "image_url": "https://img.lun.ua/building-1600x1200/17380.jpg"
  },
  {
    "building_id": 4751,
    "name": "",
    "address": "ул. Светлицкого, 35",
    "latitude": 50.507993917297,
    "longitude": 30.427860554423,
    "image_url": "https://img.lun.ua/building-1600x1200/3866.jpg"
  },
  {
    "building_id": 4755,
    "name": "ЖК AuRoom",
    "address": "ул. Паньковская, 20/82",
    "latitude": 50.438170437881,
    "longitude": 30.501012416292,
    "image_url": "https://img.lun.ua/building-1600x1200/20670.jpg"
  },
  {
    "building_id": 4756,
    "name": "",
    "address": "ул. Академика Туполева, 5а",
    "latitude": 50.478580123169095,
    "longitude": 30.394758922493565,
    "image_url": "https://img.lun.ua/building-1600x1200/3868.jpg"
  },
  {
    "building_id": 4770,
    "name": "ЖК Подол Град Vintage",
    "address": "Вознесенский спуск, 28-30 / ул. Кожемяцкая, 10ж",
    "latitude": 50.461735561062,
    "longitude": 30.506258089095,
    "image_url": "https://img.lun.ua/building-1600x1200/28803.jpg"
  },
  {
    "building_id": 4772,
    "name": "ЖК Stanford",
    "address": "ул. Предславинская, 35",
    "latitude": 50.423490148838,
    "longitude": 30.522909614693,
    "image_url": "https://img.lun.ua/building-1600x1200/36928.png"
  },
  {
    "building_id": 4773,
    "name": "ЖК Лебединый",
    "address": "ул. Ревуцкого, 40",
    "latitude": 50.402023082818,
    "longitude": 30.65029559657,
    "image_url": "https://img.lun.ua/building-1600x1200/18159.jpg"
  },
  {
    "building_id": 4774,
    "name": "ЖК V Квартал (Пятый квартал)",
    "address": "ул. Межевая",
    "latitude": 50.50101402390802,
    "longitude": 30.426383027806878,
    "image_url": "https://img.lun.ua/building-1600x1200/4976.jpg"
  },
  {
    "building_id": 4783,
    "name": "КГ Осокор",
    "address": "",
    "latitude": 50.35340808475676,
    "longitude": 30.632294941354882,
    "image_url": "https://img.lun.ua/building-1600x1200/3875.jpg"
  },
  {
    "building_id": 4785,
    "name": "ЖК Time",
    "address": "ул. Липковского, 38",
    "latitude": 50.432907880595785,
    "longitude": 30.475003240226215,
    "image_url": "https://img.lun.ua/building-1600x1200/31001.jpg"
  },
  {
    "building_id": 4797,
    "name": "ЖК Seven",
    "address": "ул. Днепровская набережная, 18",
    "latitude": 50.398065910256,
    "longitude": 30.615166008538,
    "image_url": "https://img.lun.ua/building-1600x1200/35674.jpg"
  },
  {
    "building_id": 4804,
    "name": "ЖК CRYSTAL HOUSE",
    "address": "ул. Жилянская, 26-28",
    "latitude": 50.43412421408,
    "longitude": 30.512939309702,
    "image_url": "https://img.lun.ua/building-1600x1200/26664.jpg"
  },
  {
    "building_id": 4810,
    "name": "ЖК Дом на Бориспольской",
    "address": "ул. Бориспольская, 26",
    "latitude": 50.42476495363672,
    "longitude": 30.685468275099993,
    "image_url": "https://img.lun.ua/building-1600x1200/3892.jpg"
  },
  {
    "building_id": 4815,
    "name": "ЖК Вудстория",
    "address": "ул. Полесская, 4",
    "latitude": 50.416818199855,
    "longitude": 30.682064155146,
    "image_url": "https://img.lun.ua/building-1600x1200/24035.jpg"
  },
  {
    "building_id": 4820,
    "name": "ЖК Einstein Concept House",
    "address": "ул. Златоустовская, 24а",
    "latitude": 50.449992416416144,
    "longitude": 30.488783279433846,
    "image_url": "https://img.lun.ua/building-1600x1200/35384.jpg"
  },
  {
    "building_id": 4830,
    "name": "Таунхаусы «Struetinsky»",
    "address": "ул. Болсуновская (Струтинского), 4",
    "latitude": 50.419358995309,
    "longitude": 30.552845913917,
    "image_url": "https://img.lun.ua/building-1600x1200/34696.jpg"
  },
  {
    "building_id": 4845,
    "name": "Таунхаус «Альбион»",
    "address": "ул. Макаренко, 49",
    "latitude": 50.524963,
    "longitude": 30.596772999999985,
    "image_url": "https://img.lun.ua/building-1600x1200/3906.jpg"
  },
  {
    "building_id": 4848,
    "name": "ЖК Зеленые террасы",
    "address": "ул. Академика Филатова",
    "latitude": 50.416189607966835,
    "longitude": 30.531882238098206,
    "image_url": "https://img.lun.ua/building-1600x1200/3915.jpg"
  },
  {
    "building_id": 4853,
    "name": "ЖК Karaway Tower",
    "address": "ул. Ушинского, 14а",
    "latitude": 50.432867615925,
    "longitude": 30.44791655615,
    "image_url": "https://img.lun.ua/building-1600x1200/19888.jpg"
  },
  {
    "building_id": 4857,
    "name": "ЖК Медовый",
    "address": "ул. Петра Радченко, 27-29",
    "latitude": 50.41124222728858,
    "longitude": 30.47345085069537,
    "image_url": "https://img.lun.ua/building-1600x1200/20546.jpg"
  },
  {
    "building_id": 4866,
    "name": "ЖК А52",
    "address": "ул. Сечевых Стрельцов (Артема), 52а, 52д",
    "latitude": 50.45727519570278,
    "longitude": 30.49436361528933,
    "image_url": "https://img.lun.ua/building-1600x1200/22527.jpg"
  },
  {
    "building_id": 4868,
    "name": "Жилой район Rybalsky",
    "address": "Набережно-Рыбальская дорога, 3, 9",
    "latitude": 50.480558202905,
    "longitude": 30.534512713552,
    "image_url": "https://img.lun.ua/building-1600x1200/34073.jpg"
  },
  {
    "building_id": 4888,
    "name": "ЖК Smart Plaza Obolon",
    "address": "ул. Маршала Тимошенко, 21, корп. 1",
    "latitude": 50.513077443212985,
    "longitude": 30.49715087749064,
    "image_url": "https://img.lun.ua/building-1600x1200/31939.jpg"
  },
  {
    "building_id": 4889,
    "name": "",
    "address": "ул. Драгоманова, 38",
    "latitude": 50.4069773382177,
    "longitude": 30.637975791469216,
    "image_url": "https://img.lun.ua/building-1600x1200/3923.jpg"
  },
  {
    "building_id": 4892,
    "name": "ЖК Успешный квартал",
    "address": "ул. Творческая, 4, ул. Успешная, 28, ул. Московская, 5, 6",
    "latitude": 50.3873857994968,
    "longitude": 30.458244401961565,
    "image_url": "https://img.lun.ua/building-1600x1200/27189.jpg"
  },
  {
    "building_id": 4893,
    "name": "",
    "address": "ул. Успешная, 9/3",
    "latitude": 50.385434194537524,
    "longitude": 30.45539245940745,
    "image_url": "https://img.lun.ua/building-1600x1200/31620.jpg"
  },
  {
    "building_id": 4896,
    "name": "ЖД Cascade house",
    "address": "ул. Большая Китаевская, 71",
    "latitude": 50.400716054288,
    "longitude": 30.531734246761,
    "image_url": "https://img.lun.ua/building-1600x1200/22825.jpg"
  },
  {
    "building_id": 4909,
    "name": "ЖК Eurosky",
    "address": "ул. Крутогорная, 11а",
    "latitude": 50.40696673974582,
    "longitude": 30.484691301360726,
    "image_url": "https://img.lun.ua/building-1600x1200/3944.jpg"
  },
  {
    "building_id": 4921,
    "name": "ЖК The Lakes",
    "address": "пер. Ясиноватский, 11",
    "latitude": 50.40937107631279,
    "longitude": 30.506812054663897,
    "image_url": "https://img.lun.ua/building-1600x1200/24366.jpg"
  },
  {
    "building_id": 4929,
    "name": "",
    "address": "ул. Довженко, 2",
    "latitude": 50.455782697251436,
    "longitude": 30.44671551324427,
    "image_url": "https://img.lun.ua/building-1600x1200/3954.jpg"
  },
  {
    "building_id": 4930,
    "name": "",
    "address": "пер. Керамический, 7",
    "latitude": 50.40210685781496,
    "longitude": 30.523863891139627,
    "image_url": "https://img.lun.ua/building-1600x1200/3957.jpg"
  },
  {
    "building_id": 4934,
    "name": "",
    "address": "ул. Михаила Драй-Хмары (Тухачевского), 44",
    "latitude": 50.43740982140031,
    "longitude": 30.36838848490629,
    "image_url": "https://img.lun.ua/building-1600x1200/3972.jpg"
  },
  {
    "building_id": 4935,
    "name": "",
    "address": "ул. Антоновича, 48б",
    "latitude": 50.43274645,
    "longitude": 30.512336025,
    "image_url": "https://img.lun.ua/building-1600x1200/3974.jpg"
  },
  {
    "building_id": 4949,
    "name": "ЖК Crystal Towers",
    "address": "ул. Амурская",
    "latitude": 50.39760005702861,
    "longitude": 30.48786822706461,
    "image_url": "https://img.lun.ua/building-1600x1200/3978.jpg"
  },
  {
    "building_id": 4951,
    "name": "ЖК Mirax",
    "address": "ул. Глубочицкая, 43",
    "latitude": 50.462370511093,
    "longitude": 30.496918536704,
    "image_url": "https://img.lun.ua/building-1600x1200/18829.jpg"
  },
  {
    "building_id": 4958,
    "name": "ЖК Теремки",
    "address": "ул. Академика Заболотного, 15",
    "latitude": 50.358312125099,
    "longitude": 30.476813374558,
    "image_url": "https://img.lun.ua/building-1600x1200/26097.jpg"
  },
  {
    "building_id": 4965,
    "name": "ЖК Friendly House",
    "address": "ул. Андрея Аболмасова (Панельная), 2",
    "latitude": 50.459660706834185,
    "longitude": 30.586058953776956,
    "image_url": "https://img.lun.ua/building-1600x1200/5025.jpg"
  },
  {
    "building_id": 4985,
    "name": "ЖК Orange City",
    "address": "Лысогорский спуск, 26а",
    "latitude": 50.38776590539979,
    "longitude": 30.546095540693614,
    "image_url": "https://img.lun.ua/building-1600x1200/17340.jpg"
  },
  {
    "building_id": 4988,
    "name": "ЖК Славутич 2.0",
    "address": "просп. Бажана, 151б",
    "latitude": 50.394908773356,
    "longitude": 30.60590537265,
    "image_url": "https://img.lun.ua/building-1600x1200/30997.jpg"
  },
  {
    "building_id": 4990,
    "name": "ЖК Twin House",
    "address": "ул. Крайняя, 1",
    "latitude": 50.48905162091601,
    "longitude": 30.611666897311807,
    "image_url": "https://img.lun.ua/building-1600x1200/16272.jpg"
  },
  {
    "building_id": 4991,
    "name": "",
    "address": "ул. Народная, 54а",
    "latitude": 50.41386422203674,
    "longitude": 30.478293662890792,
    "image_url": "https://img.lun.ua/building-1600x1200/3999.jpg"
  },
  {
    "building_id": 4992,
    "name": "ЖК Дом на Волошина",
    "address": "ул. Августина Волошина, 32а",
    "latitude": 50.43605828312083,
    "longitude": 30.438264352796978,
    "image_url": "https://img.lun.ua/building-1600x1200/29818.jpg"
  },
  {
    "building_id": 5007,
    "name": "ЖК Praga",
    "address": "ул. Лисковская, 31",
    "latitude": 50.529559688885,
    "longitude": 30.592201966792,
    "image_url": "https://img.lun.ua/building-1600x1200/4001.jpg"
  },
  {
    "building_id": 5047,
    "name": "Клубный дом HillSide",
    "address": "ул. Лукьяновская, 18-20",
    "latitude": 50.46497473521401,
    "longitude": 30.50436289049685,
    "image_url": "https://img.lun.ua/building-1600x1200/4009.png"
  },
  {
    "building_id": 5052,
    "name": "ЖК Файна Таун",
    "address": "ул. Салютная, 2б",
    "latitude": 50.468990761358,
    "longitude": 30.404429890789,
    "image_url": "https://img.lun.ua/building-1600x1200/19152.jpg"
  },
  {
    "building_id": 5063,
    "name": "",
    "address": "ул. Докучаевская, 5а",
    "latitude": 50.428992537351206,
    "longitude": 30.49575082026422,
    "image_url": ""
  },
  {
    "building_id": 5072,
    "name": "ЖК Привітний квартал",
    "address": "ул. Евгения Харченка (Ленина), 55",
    "latitude": 50.381210869208,
    "longitude": 30.700537936827,
    "image_url": "https://img.lun.ua/building-1600x1200/28997.jpg"
  },
  {
    "building_id": 5073,
    "name": "ЖК Караваевы Дачи",
    "address": "ул. Полевая, 73",
    "latitude": 50.43507069352163,
    "longitude": 30.445532239973545,
    "image_url": "https://img.lun.ua/building-1600x1200/17140.jpg"
  },
  {
    "building_id": 5075,
    "name": "Таунхаус «Good House»",
    "address": "ул. Профессора Караваева, 1/28",
    "latitude": 50.436329918583084,
    "longitude": 30.442408365724987,
    "image_url": "https://img.lun.ua/building-1600x1200/4029.jpg"
  },
  {
    "building_id": 5078,
    "name": "ЖК 044",
    "address": "ул. Кирилловская, 37, 37а",
    "latitude": 50.470745543284,
    "longitude": 30.500883784542,
    "image_url": "https://img.lun.ua/building-1600x1200/30648.jpg"
  },
  {
    "building_id": 5082,
    "name": "Клубный дом Brownie House",
    "address": "ул. Клиническая, 4",
    "latitude": 50.418614834566355,
    "longitude": 30.485114497660106,
    "image_url": "https://img.lun.ua/building-1600x1200/18519.jpg"
  },
  {
    "building_id": 5085,
    "name": "Клубный дом M31 Park House",
    "address": "пер. Мичурина, 31",
    "latitude": 50.422644445864,
    "longitude": 30.557569870725,
    "image_url": "https://img.lun.ua/building-1600x1200/4046.jpg"
  },
  {
    "building_id": 5093,
    "name": "ЖК Мандарин",
    "address": "ул. Волошкова, 1",
    "latitude": 50.39267629300902,
    "longitude": 30.460479537025094,
    "image_url": "https://img.lun.ua/building-1600x1200/27001.jpg"
  },
  {
    "building_id": 5105,
    "name": "ЖК GENESIS",
    "address": "пер. Индустриальный, 2",
    "latitude": 50.44224218128443,
    "longitude": 30.44376508332789,
    "image_url": "https://img.lun.ua/building-1600x1200/34928.jpg"
  },
  {
    "building_id": 5150,
    "name": "ЖК Comfort Club",
    "address": "ул. Батумская, 9а, 9б",
    "latitude": 50.404917403299955,
    "longitude": 30.5022286567837,
    "image_url": "https://img.lun.ua/building-1600x1200/26179.jpg"
  },
  {
    "building_id": 5162,
    "name": "ЖК Багговутовский",
    "address": "ул. Багговутовская, 17-21",
    "latitude": 50.47055704457489,
    "longitude": 30.480437139049172,
    "image_url": "https://img.lun.ua/building-1600x1200/16393.jpg"
  },
  {
    "building_id": 5163,
    "name": "ЖК Бережанский",
    "address": "ул. Бережанская, 15",
    "latitude": 50.51538257225239,
    "longitude": 30.45709948188492,
    "image_url": "https://img.lun.ua/building-1600x1200/16389.jpg"
  },
  {
    "building_id": 5169,
    "name": "ЖК Sky Hill",
    "address": "ул. Николая Соловцова, 2",
    "latitude": 50.4049199677008,
    "longitude": 30.556307891383767,
    "image_url": "https://img.lun.ua/building-1600x1200/21582.jpg"
  },
  {
    "building_id": 5183,
    "name": "Клубный дом «Як у Львові»",
    "address": "ул. Петропавловская, 38б",
    "latitude": 50.484514415474564,
    "longitude": 30.462596034631133,
    "image_url": "https://img.lun.ua/building-1600x1200/16252.jpg"
  },
  {
    "building_id": 5216,
    "name": "ЖК Лесная сказка 2",
    "address": "ул. Радистов, 40",
    "latitude": 50.48008835435063,
    "longitude": 30.67057030633441,
    "image_url": "https://img.lun.ua/building-1600x1200/16852.png"
  },
  {
    "building_id": 5229,
    "name": "ЖК IL Patio",
    "address": "ул. Радужная, 56",
    "latitude": 50.476821899166666,
    "longitude": 30.58883906342089,
    "image_url": "https://img.lun.ua/building-1600x1200/16514.png"
  },
  {
    "building_id": 5231,
    "name": "Клубный дом «На Соловцова»",
    "address": "ул. Николая Соловцова, 2б",
    "latitude": 50.404883854052,
    "longitude": 30.555900195614,
    "image_url": "https://img.lun.ua/building-1600x1200/21452.png"
  },
  {
    "building_id": 5237,
    "name": "Таунхаусы «Liverpool House»",
    "address": "ул. Яблоневая, 20",
    "latitude": 50.385450002993,
    "longitude": 30.44210543856,
    "image_url": "https://img.lun.ua/building-1600x1200/34405.png"
  },
  {
    "building_id": 5240,
    "name": "ЖК Creator City",
    "address": "ул. Дегтяревская, 17-19",
    "latitude": 50.46209902302934,
    "longitude": 30.46202899888158,
    "image_url": "https://img.lun.ua/building-1600x1200/36376.png"
  },
  {
    "building_id": 5247,
    "name": "",
    "address": "ул. Нововокзальная, 69-75",
    "latitude": 50.432549093748,
    "longitude": 30.498394859305,
    "image_url": "https://img.lun.ua/building-1600x1200/22588.jpg"
  },
  {
    "building_id": 5252,
    "name": "ЖК San Francisco Creative House",
    "address": "просп. Победы, 67",
    "latitude": 50.4585041233,
    "longitude": 30.4083964226,
    "image_url": "https://img.lun.ua/building-1600x1200/20708.jpg"
  },
  {
    "building_id": 5253,
    "name": "Клубный дом «На Радистов»",
    "address": "ул. Радистов, 10-14",
    "latitude": 50.47605035998234,
    "longitude": 30.670258859172463,
    "image_url": "https://img.lun.ua/building-1600x1200/32124.jpg"
  },
  {
    "building_id": 5255,
    "name": "ЖК Family & Friends",
    "address": "ул. Новополевая, 2",
    "latitude": 50.43233140699554,
    "longitude": 30.442771036177874,
    "image_url": "https://img.lun.ua/building-1600x1200/19130.jpg"
  },
  {
    "building_id": 5256,
    "name": "ЖК BaikalSKY",
    "address": "ул. Байкальская, 29",
    "latitude": 50.395131487921,
    "longitude": 30.537352720276,
    "image_url": "https://img.lun.ua/building-1600x1200/16764.jpg"
  },
  {
    "building_id": 5279,
    "name": "Клубный дом Turgenev",
    "address": "ул. Тургеневская, 22а",
    "latitude": 50.450298749234,
    "longitude": 30.493923574118,
    "image_url": "https://img.lun.ua/building-1600x1200/19674.jpg"
  },
  {
    "building_id": 5301,
    "name": "ЖК Шоколад",
    "address": "ул. Академика Лебедева, 1",
    "latitude": 50.349645795968,
    "longitude": 30.489070268607,
    "image_url": "https://img.lun.ua/building-1600x1200/17164.jpg"
  },
  {
    "building_id": 5306,
    "name": "ЖК Svitlo Park",
    "address": "Надднепрянское шоссе, 2а",
    "latitude": 50.392786588444,
    "longitude": 30.557608678937,
    "image_url": "https://img.lun.ua/building-1600x1200/31075.jpg"
  },
  {
    "building_id": 5308,
    "name": "",
    "address": "ул. Львовская / ул. Живописная",
    "latitude": 50.453427732108,
    "longitude": 30.350211896002,
    "image_url": "https://img.lun.ua/building-1600x1200/22420.png"
  },
  {
    "building_id": 5309,
    "name": "Таунхаус «Протасов Яр»",
    "address": "ул. Петра Заломова",
    "latitude": 50.41753374228022,
    "longitude": 30.491437325254083,
    "image_url": "https://img.lun.ua/building-1600x1200/27353.jpg"
  },
  {
    "building_id": 5314,
    "name": "Таунхаус «Karpatsky»",
    "address": "ул. Карпатская, 26а",
    "latitude": 50.432792014149,
    "longitude": 30.438212910667,
    "image_url": "https://img.lun.ua/building-1600x1200/17257.jpg"
  },
  {
    "building_id": 5383,
    "name": "ЖК Forest Park",
    "address": "ул. Днепроводская, 1",
    "latitude": 50.567439537981,
    "longitude": 30.459125675261,
    "image_url": "https://img.lun.ua/building-1600x1200/20442.jpg"
  },
  {
    "building_id": 5389,
    "name": "",
    "address": "бул. Тараса Шевченко, 32, 32а",
    "latitude": 50.445478646508,
    "longitude": 30.504163736477,
    "image_url": "https://img.lun.ua/building-1600x1200/18001.jpg"
  },
  {
    "building_id": 5390,
    "name": "ЖК Сырецкие сады",
    "address": "ул. Маршала Гречко, 10б",
    "latitude": 50.484737299157,
    "longitude": 30.415309383825,
    "image_url": "https://img.lun.ua/building-1600x1200/20070.jpg"
  },
  {
    "building_id": 5406,
    "name": "",
    "address": "ул. Дегтяревская, 7, 7а",
    "latitude": 50.459908295741,
    "longitude": 30.481091625988,
    "image_url": "https://img.lun.ua/building-1600x1200/18116.jpg"
  },
  {
    "building_id": 5425,
    "name": "Клубный дом Corner",
    "address": "ул. Пожарского, 16б",
    "latitude": 50.513922855685,
    "longitude": 30.591783290729,
    "image_url": "https://img.lun.ua/building-1600x1200/28953.png"
  },
  {
    "building_id": 5438,
    "name": "ЖК Эрнста",
    "address": "ул. Федора Эрнста, 14",
    "latitude": 50.415994697916,
    "longitude": 30.462207365781,
    "image_url": "https://img.lun.ua/building-1600x1200/18492.jpg"
  },
  {
    "building_id": 5450,
    "name": "ЖК Forest",
    "address": "ул. Милютенко / ул. Шолом-Алейхема",
    "latitude": 50.472319822589,
    "longitude": 30.629625488073,
    "image_url": "https://img.lun.ua/building-1600x1200/30445.jpg"
  },
  {
    "building_id": 5454,
    "name": "ЖК Kyiv Residence",
    "address": "ул. Пирятинская, 6Б",
    "latitude": 50.422167433891,
    "longitude": 30.560590716995,
    "image_url": "https://img.lun.ua/building-1600x1200/28134.jpg"
  },
  {
    "building_id": 5455,
    "name": "ЖК Solo Town",
    "address": "",
    "latitude": 0,
    "longitude": 0,
    "image_url": "https://img.lun.ua/building-1600x1200/18708.jpg"
  },
  {
    "building_id": 5461,
    "name": "ЖК Resident Concept House",
    "address": "ул. Владимирская, 86а",
    "latitude": 50.434781118219,
    "longitude": 30.508285397664,
    "image_url": "https://img.lun.ua/building-1600x1200/20702.jpg"
  },
  {
    "building_id": 5463,
    "name": "Таунхаус «Деснянская усадьба»",
    "address": "ул. Деснянская, 40",
    "latitude": 50.51947252516029,
    "longitude": 30.578035628423095,
    "image_url": "https://img.lun.ua/building-1600x1200/18913.jpg"
  },
  {
    "building_id": 5475,
    "name": "Клубный дом Tarasovskiy Apartments",
    "address": "ул. Тарасовская, 9в",
    "latitude": 50.437785758318,
    "longitude": 30.50746419467,
    "image_url": "https://img.lun.ua/building-1600x1200/18944.jpg"
  },
  {
    "building_id": 5486,
    "name": "Таунхаусы «Лагуна»",
    "address": "ул. 7-я Абрикосовая",
    "latitude": 50.348216116155,
    "longitude": 30.631060637534,
    "image_url": "https://img.lun.ua/building-1600x1200/19027.jpg"
  },
  {
    "building_id": 5531,
    "name": "",
    "address": "ул. Садовая, 3",
    "latitude": 50.386582172298,
    "longitude": 30.442822957411,
    "image_url": "https://img.lun.ua/building-1600x1200/31619.jpg"
  },
  {
    "building_id": 5534,
    "name": "ЖК Соломенский",
    "address": "ул. Университетская, 23-27",
    "latitude": 50.416551300404,
    "longitude": 30.486014122144,
    "image_url": "https://img.lun.ua/building-1600x1200/26525.png"
  },
  {
    "building_id": 5546,
    "name": "ЖК Edeldorf",
    "address": "ул. Старонаводницкая, 42",
    "latitude": 50.426346409359,
    "longitude": 30.555076587756,
    "image_url": "https://img.lun.ua/building-1600x1200/35675.jpg"
  },
  {
    "building_id": 5551,
    "name": "ЖК Лукьяновский каскад",
    "address": "ул. Половецкая, 4",
    "latitude": 50.470426446881,
    "longitude": 30.4843194969,
    "image_url": "https://img.lun.ua/building-1600x1200/28349.png"
  },
  {
    "building_id": 5552,
    "name": "ЖК Выставочный",
    "address": "ул. Героев Обороны, 8",
    "latitude": 50.381842573137,
    "longitude": 30.4884849675,
    "image_url": "https://img.lun.ua/building-1600x1200/19569.jpg"
  },
  {
    "building_id": 5553,
    "name": "ЖК Киевская Швейцария",
    "address": "ул. Макаровская, 3",
    "latitude": 50.477663333004,
    "longitude": 30.47397423055,
    "image_url": "https://img.lun.ua/building-1600x1200/19575.jpg"
  },
  {
    "building_id": 5566,
    "name": "ЖК Вересковый",
    "address": "пер. Вересковый, 10",
    "latitude": 50.382034563512,
    "longitude": 30.707094306126,
    "image_url": "https://img.lun.ua/building-1600x1200/19665.jpg"
  },
  {
    "building_id": 5601,
    "name": "ЖК Nyvky Plaza",
    "address": "ул. Маршала Гречко, 5",
    "latitude": 50.490626537601,
    "longitude": 30.405266323978,
    "image_url": "https://img.lun.ua/building-1600x1200/23859.jpg"
  },
  {
    "building_id": 5606,
    "name": "ЖК LaLaLand",
    "address": "ул. Берковецкая, 6",
    "latitude": 50.498448335984,
    "longitude": 30.357214241075,
    "image_url": "https://img.lun.ua/building-1600x1200/22867.jpg"
  },
  {
    "building_id": 5619,
    "name": "ЖК Русановская Гавань",
    "address": "ул. Евгена Маланюка (Сагайдака), 101",
    "latitude": 50.460320940764,
    "longitude": 30.583624917853,
    "image_url": "https://img.lun.ua/building-1600x1200/29654.jpg"
  },
  {
    "building_id": 5622,
    "name": "Клубный дом «Эдельвейс Феофании»",
    "address": "ул. Академика Лебедева, 1",
    "latitude": 50.348887477543,
    "longitude": 30.489156232215,
    "image_url": "https://img.lun.ua/building-1600x1200/29400.jpg"
  },
  {
    "building_id": 5636,
    "name": "ЖК White Lines",
    "address": "ул. Васильковская, 1",
    "latitude": 50.396785539565,
    "longitude": 30.507910547132,
    "image_url": "https://img.lun.ua/building-1600x1200/20399.jpg"
  },
  {
    "building_id": 5642,
    "name": "ЖК ZIM Towers",
    "address": "ул. Сумская, 3",
    "latitude": 50.39523707084,
    "longitude": 30.488874055445,
    "image_url": "https://img.lun.ua/building-1600x1200/20422.jpg"
  },
  {
    "building_id": 5653,
    "name": "ЖМ Патриотика на озерах",
    "address": "ул. Коллекторная",
    "latitude": 50.385056231859,
    "longitude": 30.637629702687,
    "image_url": "https://img.lun.ua/building-1600x1200/30001.jpg"
  },
  {
    "building_id": 5658,
    "name": "ЖК Standard One",
    "address": "ул. Васильковская, 100а",
    "latitude": 50.382372356026,
    "longitude": 30.476509574801,
    "image_url": "https://img.lun.ua/building-1600x1200/33695.jpg"
  },
  {
    "building_id": 5679,
    "name": "ЖК SunRise House",
    "address": "пер. Кудряшова, 10г",
    "latitude": 50.43091473897,
    "longitude": 30.489844847471,
    "image_url": "https://img.lun.ua/building-1600x1200/21097.jpg"
  },
  {
    "building_id": 5699,
    "name": "ЖК Philadelphia Concept House",
    "address": "Кловский спуск, 19",
    "latitude": 50.436867088954,
    "longitude": 30.541134048253,
    "image_url": "https://img.lun.ua/building-1600x1200/33469.jpg"
  },
  {
    "building_id": 5711,
    "name": "ЖК SAGA City Space",
    "address": "ул. Петра Сагайдачного, 18",
    "latitude": 50.461727225927,
    "longitude": 30.5211890582,
    "image_url": "https://img.lun.ua/building-1600x1200/24424.png"
  },
  {
    "building_id": 5713,
    "name": "ЖК Urban Park",
    "address": "ул. Магнитогорская, 5",
    "latitude": 50.462944183425,
    "longitude": 30.645649507636,
    "image_url": "https://img.lun.ua/building-1600x1200/34567.jpg"
  },
  {
    "building_id": 5719,
    "name": "Клубный дом «Деснянский DeLuxe»",
    "address": "ул. Толстого, 47",
    "latitude": 50.519094353283,
    "longitude": 30.594420740381,
    "image_url": "https://img.lun.ua/building-1600x1200/21608.jpg"
  },
  {
    "building_id": 5720,
    "name": "Клубный дом Podilsky",
    "address": "ул. Лукьяновская, 19",
    "latitude": 50.464512465151,
    "longitude": 30.504409242421,
    "image_url": "https://img.lun.ua/building-1600x1200/23658.jpg"
  },
  {
    "building_id": 5722,
    "name": "ЖК Район-2",
    "address": "ул. Лисковская, 23",
    "latitude": 50.529927579451,
    "longitude": 30.591779749878,
    "image_url": "https://img.lun.ua/building-1600x1200/28477.jpg"
  },
  {
    "building_id": 5733,
    "name": "ЖК Урловский-2",
    "address": "ул. Клеманская",
    "latitude": 50.416733888088,
    "longitude": 30.606558658183,
    "image_url": "https://img.lun.ua/building-1600x1200/21879.jpg"
  },
  {
    "building_id": 5734,
    "name": "ЖК Коломиевский",
    "address": "пер. Коломиевский, 6",
    "latitude": 50.389484700892,
    "longitude": 30.493905711919,
    "image_url": "https://img.lun.ua/building-1600x1200/21887.jpg"
  },
  {
    "building_id": 5735,
    "name": "ЖК Просвещения, 14",
    "address": "ул. Просвещения, 14",
    "latitude": 50.424665271457,
    "longitude": 30.467194302657,
    "image_url": "https://img.lun.ua/building-1600x1200/21898.png"
  },
  {
    "building_id": 5736,
    "name": "ЖК Электриков",
    "address": "пер. Электриков, 11",
    "latitude": 50.481475336073,
    "longitude": 30.510951513425,
    "image_url": "https://img.lun.ua/building-1600x1200/21904.png"
  },
  {
    "building_id": 5737,
    "name": "ЖК Урловский-1",
    "address": "ул. Причальная, 11",
    "latitude": 50.410483259545,
    "longitude": 30.611503310503,
    "image_url": "https://img.lun.ua/building-1600x1200/21908.jpg"
  },
  {
    "building_id": 5740,
    "name": "ЖК Diadans",
    "address": "ул. Евгения Коновальца, 19",
    "latitude": 50.426601189292,
    "longitude": 30.527703083082,
    "image_url": "https://img.lun.ua/building-1600x1200/32422.jpg"
  },
  {
    "building_id": 5745,
    "name": "ЖК Art Парк",
    "address": "ул. Бориспольская, 67",
    "latitude": 50.417446559712,
    "longitude": 30.716905407607,
    "image_url": "https://img.lun.ua/building-1600x1200/22008.jpg"
  },
  {
    "building_id": 5749,
    "name": "ЖК Аквамарин",
    "address": "просп. Победы, 131",
    "latitude": 50.454272220546,
    "longitude": 30.350839365274,
    "image_url": "https://img.lun.ua/building-1600x1200/22404.jpg"
  },
  {
    "building_id": 5754,
    "name": "ЖК Struetinsky Residence",
    "address": "ул. Болсуновская, 8",
    "latitude": 50.419588429353,
    "longitude": 30.55241801776,
    "image_url": "https://img.lun.ua/building-1600x1200/36314.jpg"
  },
  {
    "building_id": 5779,
    "name": "",
    "address": "ул. Маршака, 5-9",
    "latitude": 50.468370806231,
    "longitude": 30.345269490033,
    "image_url": "https://img.lun.ua/building-1600x1200/22239.jpg"
  },
  {
    "building_id": 5786,
    "name": "Клубный дом Greenwood",
    "address": "ул. Кисловодская, 100",
    "latitude": 50.475805411291,
    "longitude": 30.681353146211,
    "image_url": "https://img.lun.ua/building-1600x1200/30514.jpg"
  },
  {
    "building_id": 5792,
    "name": "",
    "address": "ул. Вышгородская, 47ж",
    "latitude": 50.514767559228,
    "longitude": 30.448208262479,
    "image_url": "https://img.lun.ua/building-1600x1200/36727.jpg"
  },
  {
    "building_id": 5793,
    "name": "ЖК Greenville Park",
    "address": "ул. Пимоненко, 21",
    "latitude": 50.46144574425,
    "longitude": 30.491447903216,
    "image_url": "https://img.lun.ua/building-1600x1200/22409.jpg"
  },
  {
    "building_id": 5812,
    "name": "ЖК O2 Residence",
    "address": "Бориспольское шоссе",
    "latitude": 50.390294288241,
    "longitude": 30.725707789103,
    "image_url": "https://img.lun.ua/building-1600x1200/22607.jpg"
  },
  {
    "building_id": 5821,
    "name": "ЖК Praga-2",
    "address": "ул. Милославская, 20",
    "latitude": 50.531865068326,
    "longitude": 30.59389628298,
    "image_url": "https://img.lun.ua/building-1600x1200/30364.jpg"
  },
  {
    "building_id": 5824,
    "name": "ЖК Старт",
    "address": "ул. Шолуденко, 30",
    "latitude": 50.458346444951,
    "longitude": 30.480568988335,
    "image_url": "https://img.lun.ua/building-1600x1200/30999.jpg"
  },
  {
    "building_id": 5825,
    "name": "ЖК Salut",
    "address": "бул. Дружбы Народов, 2",
    "latitude": 50.410701307367,
    "longitude": 30.527551727589,
    "image_url": "https://img.lun.ua/building-1600x1200/35962.jpg"
  },
  {
    "building_id": 5826,
    "name": "ЖК Navigator",
    "address": "пер. Балтийский, 23",
    "latitude": 50.497983731051,
    "longitude": 30.467054072065,
    "image_url": "https://img.lun.ua/building-1600x1200/26871.jpg"
  },
  {
    "building_id": 5827,
    "name": "",
    "address": "ул. Круглоуниверситетская, 5-7",
    "latitude": 50.44359162629,
    "longitude": 30.523384530097,
    "image_url": ""
  },
  {
    "building_id": 5832,
    "name": "КГ Конык",
    "address": "ул. Февральская, 58",
    "latitude": 50.340853723316,
    "longitude": 30.560677863657,
    "image_url": "https://img.lun.ua/building-1600x1200/22783.jpg"
  },
  {
    "building_id": 5842,
    "name": "ЖК Olympic Park",
    "address": "Харьковское шоссе, 210",
    "latitude": 50.403493337737,
    "longitude": 30.677738953381,
    "image_url": "https://img.lun.ua/building-1600x1200/22872.jpg"
  },
  {
    "building_id": 5843,
    "name": "ЖК Fjord",
    "address": "Военный проезд, 8",
    "latitude": 50.407280712606,
    "longitude": 30.547972761706,
    "image_url": "https://img.lun.ua/building-1600x1200/31710.jpg"
  },
  {
    "building_id": 5845,
    "name": "ЖК Poetica",
    "address": "ул. Дегтяревская, 25а",
    "latitude": 50.460573715897,
    "longitude": 30.451404027092,
    "image_url": "https://img.lun.ua/building-1600x1200/25599.jpg"
  },
  {
    "building_id": 5855,
    "name": "ЖК Kolibri",
    "address": "",
    "latitude": 0,
    "longitude": 0,
    "image_url": "https://img.lun.ua/building-1600x1200/24239.jpg"
  },
  {
    "building_id": 5926,
    "name": "ЖК Дніпровська Мрія",
    "address": "ул. Сосюры, 6",
    "latitude": 50.442199476221,
    "longitude": 30.631460286677,
    "image_url": "https://img.lun.ua/building-1600x1200/23509.jpg"
  },
  {
    "building_id": 5948,
    "name": "ЖК Днепровский",
    "address": "ул. Гродненская, 14",
    "latitude": 50.438577139983,
    "longitude": 30.646814424545,
    "image_url": "https://img.lun.ua/building-1600x1200/28080.jpg"
  },
  {
    "building_id": 5954,
    "name": "",
    "address": "ул. Академика Глушкова, 42",
    "latitude": 50.360972740591,
    "longitude": 30.437150857527,
    "image_url": ""
  },
  {
    "building_id": 5964,
    "name": "ЖК Львовская площадь",
    "address": "ул. Кудрявская, 24а",
    "latitude": 50.458045656001,
    "longitude": 30.503357643763,
    "image_url": "https://img.lun.ua/building-1600x1200/25058.jpg"
  },
  {
    "building_id": 5969,
    "name": "",
    "address": "ул. Евгена Маланюка (Сагайдака), 101, дом 31",
    "latitude": 50.458210969243,
    "longitude": 30.5825233832,
    "image_url": "https://img.lun.ua/building-1600x1200/29621.jpg"
  },
  {
    "building_id": 5974,
    "name": "ЖК Зелёный замок",
    "address": "ул. Мирная, 2/1",
    "latitude": 50.464366484584,
    "longitude": 30.507759321481,
    "image_url": ""
  },
  {
    "building_id": 5978,
    "name": "ЖК Варшавский Плюс",
    "address": "просп. Правды",
    "latitude": 50.506064539008,
    "longitude": 30.411229804158,
    "image_url": "https://img.lun.ua/building-1600x1200/35673.jpg"
  },
  {
    "building_id": 5997,
    "name": "Linden Luxury Residences",
    "address": "ул. Лютеранская, 14в",
    "latitude": 50.444332569713,
    "longitude": 30.52459673956,
    "image_url": "https://img.lun.ua/building-1600x1200/35503.jpg"
  },
  {
    "building_id": 6002,
    "name": "Клубный дом LA MANCHE",
    "address": "ул. Щекавицкая, 46",
    "latitude": 50.472848942202,
    "longitude": 30.516920424998,
    "image_url": "https://img.lun.ua/building-1600x1200/32356.jpg"
  },
  {
    "building_id": 6009,
    "name": "ЖК Новый Подол",
    "address": "ул. Набережно-Луговая",
    "latitude": 50.475929129475,
    "longitude": 30.514756590128,
    "image_url": "https://img.lun.ua/building-1600x1200/24423.png"
  },
  {
    "building_id": 6010,
    "name": "ЖК Amsterdam Concept House",
    "address": "ул. Константиновская",
    "latitude": 50.473498380679,
    "longitude": 30.497857667506,
    "image_url": "https://img.lun.ua/building-1600x1200/24426.png"
  },
  {
    "building_id": 6011,
    "name": "ЖК The Park Residence",
    "address": "ул. Дмитрия Луценко, 11, 13",
    "latitude": 50.396511009719,
    "longitude": 30.467654462943,
    "image_url": "https://img.lun.ua/building-1600x1200/24432.jpg"
  },
  {
    "building_id": 6013,
    "name": "",
    "address": "ул. Жилянская, 96а",
    "latitude": 50.439809671522,
    "longitude": 30.499522257596,
    "image_url": "https://img.lun.ua/building-1600x1200/25254.jpg"
  },
  {
    "building_id": 6021,
    "name": "ЖК LookyanSky",
    "address": "ул. Лукьяновская",
    "latitude": 50.462698840541,
    "longitude": 30.492810766177,
    "image_url": "https://img.lun.ua/building-1600x1200/33295.jpg"
  },
  {
    "building_id": 6034,
    "name": "ЖК Montreal House",
    "address": "ул. Большая Васильковская, 102у / ул. Антоновича, 83",
    "latitude": 50.425653700875,
    "longitude": 30.515363384038,
    "image_url": "https://img.lun.ua/building-1600x1200/30867.jpg"
  },
  {
    "building_id": 6043,
    "name": "Standard One Terminal",
    "address": "ул. Ползунова, 1б",
    "latitude": 50.438208997739,
    "longitude": 30.485032964498,
    "image_url": "https://img.lun.ua/building-1600x1200/36454.jpg"
  },
  {
    "building_id": 6056,
    "name": "",
    "address": "ул. Кольцова, 24а",
    "latitude": 50.425498329812,
    "longitude": 30.376094353014,
    "image_url": "https://img.lun.ua/building-1600x1200/30674.jpg"
  },
  {
    "building_id": 6073,
    "name": "Клубный дом «Ширма Club»",
    "address": "ул. Генерала Доватора, 2а",
    "latitude": 50.403155685915,
    "longitude": 30.501108967617,
    "image_url": "https://img.lun.ua/building-1600x1200/27817.png"
  },
  {
    "building_id": 6079,
    "name": "ЖК Вектор",
    "address": "ул. Добробутная, 7",
    "latitude": 50.38523985665,
    "longitude": 30.440526452021,
    "image_url": "https://img.lun.ua/building-1600x1200/25321.png"
  },
  {
    "building_id": 6082,
    "name": "ЖК Итальянский квартал",
    "address": "ул. Богатырская, 32",
    "latitude": 50.542795751461,
    "longitude": 30.493246097333,
    "image_url": "https://img.lun.ua/building-1600x1200/25359.png"
  },
  {
    "building_id": 6086,
    "name": "ЖК Healthy City",
    "address": "ул. Джона Маккейна (Ивана Кудри), 5",
    "latitude": 50.41507969407,
    "longitude": 30.529260486388,
    "image_url": "https://img.lun.ua/building-1600x1200/25446.jpg"
  },
  {
    "building_id": 6103,
    "name": "Клубный дом Concordia",
    "address": "ул. Кудрявская, 45",
    "latitude": 50.458726049367,
    "longitude": 30.503592961377,
    "image_url": "https://img.lun.ua/building-1600x1200/30935.jpg"
  },
  {
    "building_id": 6120,
    "name": "ЖК Finland Yard",
    "address": "ул. Радистов, 30",
    "latitude": 50.478012452112,
    "longitude": 30.669600587934,
    "image_url": "https://img.lun.ua/building-1600x1200/27221.jpg"
  },
  {
    "building_id": 6128,
    "name": "МФК Intergal City",
    "address": "ул. Старонаводницкая, 16б",
    "latitude": 50.425265,
    "longitude": 30.548662,
    "image_url": "https://img.lun.ua/building-1600x1200/35508.jpg"
  },
  {
    "building_id": 6144,
    "name": "ЖК Happy House",
    "address": "просп. Победы, 72",
    "latitude": 50.458214,
    "longitude": 30.428241,
    "image_url": "https://img.lun.ua/building-1600x1200/27616.jpg"
  },
  {
    "building_id": 6153,
    "name": "Таунхаус «Пирогово»",
    "address": "ул. Лауреатская, 102",
    "latitude": 50.347895700815,
    "longitude": 30.514820329153,
    "image_url": "https://img.lun.ua/building-1600x1200/26323.jpg"
  },
  {
    "building_id": 6194,
    "name": "ЖК Terracotta",
    "address": "просп. Николая Бажана",
    "latitude": 50.403862401912,
    "longitude": 30.673674138238,
    "image_url": "https://img.lun.ua/building-1600x1200/28946.jpg"
  },
  {
    "building_id": 6198,
    "name": "Клубный дом Skyland 3",
    "address": "ул. Сергея Колоса",
    "latitude": 50.391659561736,
    "longitude": 30.460484925549,
    "image_url": "https://img.lun.ua/building-1600x1200/26821.jpg"
  },
  {
    "building_id": 6199,
    "name": "ЖК Академ-Квартал",
    "address": "пер. Приборный, 10",
    "latitude": 50.472405828193,
    "longitude": 30.36227462647,
    "image_url": "https://img.lun.ua/building-1600x1200/30202.jpg"
  },
  {
    "building_id": 6214,
    "name": "ЖК SKY AVENUE",
    "address": "ул. Народного Ополчения, 3",
    "latitude": 50.416017670831,
    "longitude": 30.455704801294,
    "image_url": "https://img.lun.ua/building-1600x1200/34904.jpg"
  },
  {
    "building_id": 6227,
    "name": "",
    "address": "ул. Казимира Малевича, 44, 46",
    "latitude": 50.424505196651,
    "longitude": 30.512902906686,
    "image_url": ""
  },
  {
    "building_id": 6230,
    "name": "ЖК Washington Concept House",
    "address": "ул. Лабораторная, 12",
    "latitude": 50.425537344574,
    "longitude": 30.518785810877,
    "image_url": "https://img.lun.ua/building-1600x1200/33396.jpg"
  },
  {
    "building_id": 6240,
    "name": "",
    "address": "пер. Делегатский, 4, 6",
    "latitude": 50.472146113833,
    "longitude": 30.476927404783,
    "image_url": ""
  },
  {
    "building_id": 6244,
    "name": "ЖК Радужный",
    "address": "ул. Кибальчича, 2",
    "latitude": 50.492708485484,
    "longitude": 30.586502000611,
    "image_url": "https://img.lun.ua/building-1600x1200/27232.jpg"
  },
  {
    "building_id": 6245,
    "name": "ЖК Абрикосовый",
    "address": "ул. Жулянская",
    "latitude": 50.367450883027,
    "longitude": 30.439944361049,
    "image_url": "https://img.lun.ua/building-1600x1200/30944.jpg"
  },
  {
    "building_id": 6250,
    "name": "ЖК Tourbillon",
    "address": "ул. Протасов Яр, ул. Николая Амосова",
    "latitude": 50.421175755637,
    "longitude": 30.49785461337,
    "image_url": "https://img.lun.ua/building-1600x1200/27864.jpg"
  },
  {
    "building_id": 6263,
    "name": "ЖК OK'LAND",
    "address": "просп. Воздухофлотский, 56",
    "latitude": 50.422551648639,
    "longitude": 30.455601623697,
    "image_url": "https://img.lun.ua/building-1600x1200/32665.jpg"
  },
  {
    "building_id": 6266,
    "name": "",
    "address": "ул. Багговутовская, 16",
    "latitude": 50.470383257502,
    "longitude": 30.477471636654,
    "image_url": "https://img.lun.ua/building-1600x1200/27460.png"
  },
  {
    "building_id": 6286,
    "name": "Клубный дом Gardenhouse",
    "address": "ул. Казацкая, 55",
    "latitude": 50.402100621565,
    "longitude": 30.505861414082,
    "image_url": "https://img.lun.ua/building-1600x1200/27701.jpg"
  },
  {
    "building_id": 6314,
    "name": "ЖК Науки 58",
    "address": "просп. Науки, 58",
    "latitude": 50.381334504255,
    "longitude": 30.532436695292,
    "image_url": "https://img.lun.ua/building-1600x1200/27991.jpg"
  },
  {
    "building_id": 6321,
    "name": "Клубный дом «Олеговая гора»",
    "address": "пер. Лукьяновский, 3",
    "latitude": 50.464583386963,
    "longitude": 30.500838943607,
    "image_url": "https://img.lun.ua/building-1600x1200/27953.jpg"
  },
  {
    "building_id": 6323,
    "name": "ЖК Club House",
    "address": "ул. Яблочная, 11-15",
    "latitude": 50.385900203804,
    "longitude": 30.444298545057,
    "image_url": "https://img.lun.ua/building-1600x1200/28865.jpg"
  },
  {
    "building_id": 6325,
    "name": "ЖК Новый Автограф",
    "address": "ул. Генерала Жмаченко, 26",
    "latitude": 50.468049788821,
    "longitude": 30.609887645536,
    "image_url": "https://img.lun.ua/building-1600x1200/29673.jpg"
  },
  {
    "building_id": 6339,
    "name": "",
    "address": "ул. Цимбалов Яр, 31",
    "latitude": 50.398611661688,
    "longitude": 30.523259928172,
    "image_url": ""
  },
  {
    "building_id": 6358,
    "name": "ЖК Лондон Парк",
    "address": "ул. Луговая, 3б",
    "latitude": 50.385198244114,
    "longitude": 30.452795323357,
    "image_url": "https://img.lun.ua/building-1600x1200/28485.jpg"
  },
  {
    "building_id": 6366,
    "name": "ЖК Лисовый-2",
    "address": "ул. Генерала Матыкина, 12",
    "latitude": 50.300285851351,
    "longitude": 30.575060895285,
    "image_url": "https://img.lun.ua/building-1600x1200/28592.jpg"
  },
  {
    "building_id": 6375,
    "name": "ЖК Медовый-2",
    "address": "ул. Петра Радченко, 27",
    "latitude": 50.409765545878,
    "longitude": 30.476789137683,
    "image_url": "https://img.lun.ua/building-1600x1200/28743.jpg"
  },
  {
    "building_id": 6394,
    "name": "ЖК Причал 8",
    "address": "ул. Канальная, 8",
    "latitude": 50.42031550787,
    "longitude": 30.611313062031,
    "image_url": "https://img.lun.ua/building-1600x1200/31663.jpg"
  },
  {
    "building_id": 6395,
    "name": "Клубный дом «Лайтхаус»",
    "address": "ул. Пожарского, 70",
    "latitude": 50.51851662088,
    "longitude": 30.593739489669,
    "image_url": "https://img.lun.ua/building-1600x1200/28982.jpg"
  },
  {
    "building_id": 6401,
    "name": "ЖК Art House",
    "address": "ул. Михаила Максимовича (Трутенко), 3",
    "latitude": 50.391793489452,
    "longitude": 30.475979629996,
    "image_url": "https://img.lun.ua/building-1600x1200/30855.jpg"
  },
  {
    "building_id": 6405,
    "name": "ЖК Great",
    "address": "Днепровская набережная",
    "latitude": 50.411486930586,
    "longitude": 30.598887409007,
    "image_url": "https://img.lun.ua/building-1600x1200/29291.jpg"
  },
  {
    "building_id": 6406,
    "name": "",
    "address": "ул. Лесозащитная, 17",
    "latitude": 50.525289867221,
    "longitude": 30.436020578129,
    "image_url": ""
  },
  {
    "building_id": 6407,
    "name": "ЖК Отрада",
    "address": "просп. Отрадный, 93/2",
    "latitude": 50.422649848741,
    "longitude": 30.427622156178,
    "image_url": "https://img.lun.ua/building-1600x1200/29095.jpg"
  },
  {
    "building_id": 6408,
    "name": "ЖК Aria",
    "address": "бул. Дружбы Народов, 13а",
    "latitude": 50.415116743887,
    "longitude": 30.537552791224,
    "image_url": "https://img.lun.ua/building-1600x1200/30343.jpg"
  },
  {
    "building_id": 6416,
    "name": "ЖК Метро парк",
    "address": "ул. Каменская, 123",
    "latitude": 50.405470957471,
    "longitude": 30.670175643102,
    "image_url": "https://img.lun.ua/building-1600x1200/30002.jpg"
  },
  {
    "building_id": 6423,
    "name": "ЖК Crystal Park Tower",
    "address": "просп. Победы, 42",
    "latitude": 50.454152997493,
    "longitude": 30.45214458263,
    "image_url": "https://img.lun.ua/building-1600x1200/29230.jpg"
  },
  {
    "building_id": 6429,
    "name": "Клубный дом «Марсель»",
    "address": "ул. Нижнеюрковская, 8б",
    "latitude": 50.466718949357,
    "longitude": 30.493763495148,
    "image_url": "https://img.lun.ua/building-1600x1200/29642.jpg"
  },
  {
    "building_id": 6439,
    "name": "ЖК Вежа на Ломоносова",
    "address": "ул. Ломоносова, 33/43",
    "latitude": 50.390403238183,
    "longitude": 30.487238956519,
    "image_url": "https://img.lun.ua/building-1600x1200/36219.jpg"
  },
  {
    "building_id": 6440,
    "name": "",
    "address": "ул. Курнатовского, 20",
    "latitude": 50.48593794221,
    "longitude": 30.6046019295,
    "image_url": "https://img.lun.ua/building-1600x1200/29543.jpg"
  },
  {
    "building_id": 6465,
    "name": "ЖК Loft Park",
    "address": "ул. Железнодорожная, 32",
    "latitude": 50.442675105198,
    "longitude": 30.452090033053,
    "image_url": "https://img.lun.ua/building-1600x1200/29787.jpg"
  },
  {
    "building_id": 6480,
    "name": "КГ Осокорки Residence",
    "address": "ул. 180-я Садовая, 5",
    "latitude": 50.367804719702,
    "longitude": 30.780018199021,
    "image_url": "https://img.lun.ua/building-1600x1200/29912.jpg"
  },
  {
    "building_id": 6500,
    "name": "ЖК Greenville на Печерске",
    "address": "пер. Новопечерский, 5",
    "latitude": 50.424432063574,
    "longitude": 30.529608755853,
    "image_url": "https://img.lun.ua/building-1600x1200/30653.jpg"
  },
  {
    "building_id": 6523,
    "name": "ЖК UNIT.Home",
    "address": "ул. Семьи Хохловых, 8",
    "latitude": 50.465383841418,
    "longitude": 30.464403929425,
    "image_url": "https://img.lun.ua/building-1600x1200/35209.jpg"
  },
  {
    "building_id": 6527,
    "name": "Апарт-комплекс в Пуще Водице",
    "address": "ул. Квитки Цисык, 34, 36",
    "latitude": 50.538386333038,
    "longitude": 30.358031602679,
    "image_url": "https://img.lun.ua/building-1600x1200/30525.jpg"
  },
  {
    "building_id": 6562,
    "name": "ЖК А136",
    "address": "ул. Антоновича, 136-138",
    "latitude": 50.419396054756,
    "longitude": 30.518210285181,
    "image_url": "https://img.lun.ua/building-1600x1200/30799.jpg"
  },
  {
    "building_id": 6590,
    "name": "ЖК Современный квартал",
    "address": "просп. Космонавта Комарова, 9б",
    "latitude": 50.43284684547,
    "longitude": 30.404841074023,
    "image_url": "https://img.lun.ua/building-1600x1200/32819.jpg"
  },
  {
    "building_id": 6609,
    "name": "ЖК Lipki Island City Resort",
    "address": "ул. Набережно-Рыбальская",
    "latitude": 50.478561963484,
    "longitude": 30.528083375828,
    "image_url": "https://img.lun.ua/building-1600x1200/31302.jpg"
  },
  {
    "building_id": 6610,
    "name": "ЖК Forest Avenue",
    "address": "ул. Лесная, 78",
    "latitude": 50.384421252518,
    "longitude": 30.714166310967,
    "image_url": ""
  },
  {
    "building_id": 6620,
    "name": "Клубный квартал «Феофания-park»",
    "address": "ул. Метрологическая",
    "latitude": 50.346747608911,
    "longitude": 30.474571462327,
    "image_url": "https://img.lun.ua/building-1600x1200/31515.jpg"
  },
  {
    "building_id": 6642,
    "name": "ЖК Illinsky House",
    "address": "ул. Набережно-Крещатицкая, 21",
    "latitude": 50.465763332638,
    "longitude": 30.524561296369,
    "image_url": "https://img.lun.ua/building-1600x1200/31725.jpg"
  },
  {
    "building_id": 6647,
    "name": "",
    "address": "ул. Каунасская, 27",
    "latitude": 50.430346737102,
    "longitude": 30.626657682976,
    "image_url": "https://img.lun.ua/building-1600x1200/36038.png"
  },
  {
    "building_id": 6650,
    "name": "ЖК 50Avenue",
    "address": "просп. Победы, 50а",
    "latitude": 50.455352191409,
    "longitude": 30.443245298372,
    "image_url": "https://img.lun.ua/building-1600x1200/35414.jpg"
  },
  {
    "building_id": 6664,
    "name": "",
    "address": "ул. Набережно-Корчеватская, 29",
    "latitude": 50.370858183157,
    "longitude": 30.55175208868,
    "image_url": ""
  },
  {
    "building_id": 6674,
    "name": "ЖК Rusaniv Residence",
    "address": "ул. Сверстюка, 54",
    "latitude": 50.442449190468,
    "longitude": 30.606866470993,
    "image_url": "https://img.lun.ua/building-1600x1200/34093.jpg"
  },
  {
    "building_id": 6683,
    "name": "ЖК Wood Park",
    "address": "ул. Радистов, 24",
    "latitude": 50.477308657304,
    "longitude": 30.669538428138,
    "image_url": "https://img.lun.ua/building-1600x1200/32198.jpg"
  },
  {
    "building_id": 6688,
    "name": "ЖК Franklin Concept House",
    "address": "ул. Олеся Гончара, 69",
    "latitude": 50.447846107599,
    "longitude": 30.496695782769,
    "image_url": "https://img.lun.ua/building-1600x1200/32315.jpg"
  },
  {
    "building_id": 6691,
    "name": "",
    "address": "ул. Ивана Кочерги, 17а",
    "latitude": 50.418576909819,
    "longitude": 30.62055137817,
    "image_url": "https://img.lun.ua/building-1600x1200/34950.jpg"
  },
  {
    "building_id": 6693,
    "name": "Таунхаус «SovSky House»",
    "address": "ул. Заветная, 25",
    "latitude": 50.401502717634,
    "longitude": 30.477447881988,
    "image_url": "https://img.lun.ua/building-1600x1200/32397.jpg"
  },
  {
    "building_id": 6698,
    "name": "",
    "address": "ул. Воскресенская, 2а",
    "latitude": 50.465509,
    "longitude": 30.60125,
    "image_url": ""
  },
  {
    "building_id": 6718,
    "name": "ЖК Голосеевский",
    "address": "ул. Васильковская, 37",
    "latitude": 50.391812077904,
    "longitude": 30.485924225605,
    "image_url": "https://img.lun.ua/building-1600x1200/32804.jpg"
  },
  {
    "building_id": 6744,
    "name": "",
    "address": "ул. Сергея Колоса, 3",
    "latitude": 50.391173980553,
    "longitude": 30.46034432007,
    "image_url": "https://img.lun.ua/building-1600x1200/33538.jpg"
  },
  {
    "building_id": 6757,
    "name": "ЖК Ревуцкий",
    "address": "ул. Ревуцкого/ ул. Вишняковская",
    "latitude": 50.392732625763,
    "longitude": 30.65293776105,
    "image_url": "https://img.lun.ua/building-1600x1200/33413.jpg"
  },
  {
    "building_id": 6774,
    "name": "Таунхаусы «New Smart 6»",
    "address": "ул. Смерекова",
    "latitude": 50.397273770896,
    "longitude": 30.449235434405,
    "image_url": "https://img.lun.ua/building-1600x1200/33631.jpg"
  },
  {
    "building_id": 6796,
    "name": "Таунхаус «Новая Эллада»",
    "address": "ул. Рокитнянская, 11а",
    "latitude": 50.475336841376,
    "longitude": 30.343900621892,
    "image_url": "https://img.lun.ua/building-1600x1200/33794.jpg"
  },
  {
    "building_id": 6811,
    "name": "ЖК DOCK32",
    "address": "просп. Степана Бандеры, 32д",
    "latitude": 50.485180961819,
    "longitude": 30.532635516136,
    "image_url": "https://img.lun.ua/building-1600x1200/35609.jpg"
  },
  {
    "building_id": 6816,
    "name": "ЖК Dibrova Park",
    "address": "ул. Северо-Сырецкая",
    "latitude": 50.491077177523,
    "longitude": 30.419547392824,
    "image_url": "https://img.lun.ua/building-1600x1200/35181.jpg"
  },
  {
    "building_id": 6822,
    "name": "ЖК Павленко Холл",
    "address": "ул. Павленко, 10",
    "latitude": 50.464195411393,
    "longitude": 30.337498466359,
    "image_url": "https://img.lun.ua/building-1600x1200/34099.jpg"
  },
  {
    "building_id": 6824,
    "name": "ЖК Lucky Land",
    "address": "ул. Берковецкая, 6",
    "latitude": 50.4969588,
    "longitude": 30.3613237,
    "image_url": "https://img.lun.ua/building-1600x1200/35223.png"
  },
  {
    "building_id": 6826,
    "name": "",
    "address": "ул. Причальная, 5а",
    "latitude": 50.41237037107,
    "longitude": 30.601102727231,
    "image_url": "https://img.lun.ua/building-1600x1200/34119.jpg"
  },
  {
    "building_id": 6830,
    "name": "",
    "address": "ул. Ясногорская",
    "latitude": 50.481569943409,
    "longitude": 30.43871708656,
    "image_url": ""
  },
  {
    "building_id": 6836,
    "name": "ЖК Медовый 3",
    "address": "ул. Петра Радченко, 27",
    "latitude": 50.412326467226,
    "longitude": 30.469302522507,
    "image_url": "https://img.lun.ua/building-1600x1200/34244.jpg"
  },
  {
    "building_id": 6837,
    "name": "",
    "address": "ул. Жмеринская, 5",
    "latitude": 50.440698124448,
    "longitude": 30.390171248209,
    "image_url": "https://img.lun.ua/building-1600x1200/34247.jpg"
  },
  {
    "building_id": 6838,
    "name": "",
    "address": "ул. Федора Кричевского, 19",
    "latitude": 50.449735274641,
    "longitude": 30.366387294744,
    "image_url": "https://img.lun.ua/building-1600x1200/34248.jpg"
  },
  {
    "building_id": 6839,
    "name": "",
    "address": "ул. Николая Василенко, 2",
    "latitude": 50.454487300831,
    "longitude": 30.416507461985,
    "image_url": "https://img.lun.ua/building-1600x1200/34249.jpg"
  },
  {
    "building_id": 6852,
    "name": "",
    "address": "пер. Слободской",
    "latitude": 50.461031833528,
    "longitude": 30.586434812221,
    "image_url": ""
  },
  {
    "building_id": 6861,
    "name": "",
    "address": "ул. Кудряшова, 8",
    "latitude": 50.434170490603,
    "longitude": 30.489418657046,
    "image_url": ""
  },
  {
    "building_id": 6864,
    "name": "ЖК Evita",
    "address": "ул. Пироговский шлях, 239",
    "latitude": 50.33624574983,
    "longitude": 30.536531458228,
    "image_url": "https://img.lun.ua/building-1600x1200/34466.jpg"
  },
  {
    "building_id": 6887,
    "name": "ЖК Берег Днепра",
    "address": "Днепровская набережная, 17в",
    "latitude": 50.410911916466,
    "longitude": 30.600208530106,
    "image_url": "https://img.lun.ua/building-1600x1200/34855.png"
  },
  {
    "building_id": 6921,
    "name": "",
    "address": "ул. Межевая",
    "latitude": 50.497742330211,
    "longitude": 30.423557290144,
    "image_url": ""
  },
  {
    "building_id": 6922,
    "name": "",
    "address": "ул. Московская, 7",
    "latitude": 50.44087834506,
    "longitude": 30.545125892838,
    "image_url": ""
  },
  {
    "building_id": 6923,
    "name": "",
    "address": "ул. Госпитальная, 4",
    "latitude": 50.435931131411,
    "longitude": 30.522333354279,
    "image_url": ""
  },
  {
    "building_id": 6928,
    "name": "",
    "address": "ул. Мечникова, 7б",
    "latitude": 50.438055027194,
    "longitude": 30.532842954693,
    "image_url": ""
  },
  {
    "building_id": 6942,
    "name": "",
    "address": "ул. Гоголевская, 32в",
    "latitude": 50.452794831958,
    "longitude": 30.495713388585,
    "image_url": ""
  },
  {
    "building_id": 6953,
    "name": "",
    "address": "ул. Просвещения, 3а",
    "latitude": 50.425387913316,
    "longitude": 30.46684282732,
    "image_url": "https://img.lun.ua/building-1600x1200/35701.jpg"
  },
  {
    "building_id": 6954,
    "name": "ЖК Гончара 22",
    "address": "ул. Гончара, 22",
    "latitude": 50.4518802,
    "longitude": 30.5076657,
    "image_url": "https://img.lun.ua/building-1600x1200/35703.jpg"
  },
  {
    "building_id": 6967,
    "name": "Таунхаус «Протасов Яр 2»",
    "address": "ул. Шпилевая, 3",
    "latitude": 50.416845744766,
    "longitude": 30.489479483284,
    "image_url": "https://img.lun.ua/building-1600x1200/35792.jpg"
  },
  {
    "building_id": 6986,
    "name": "ЖК Be the One",
    "address": "ул. Василия Стуса, 35-37",
    "latitude": 50.458510845498,
    "longitude": 30.359302717842,
    "image_url": "https://img.lun.ua/building-1600x1200/36176.jpg"
  },
  {
    "building_id": 6990,
    "name": "",
    "address": "пер. Ватутина",
    "latitude": 50.395622533373,
    "longitude": 30.425810058128,
    "image_url": ""
  },
  {
    "building_id": 6992,
    "name": "Клубный дом «Весна на улице Осенней»",
    "address": "ул. Осенняя, 59",
    "latitude": 50.46665040779,
    "longitude": 30.342917404775,
    "image_url": "https://img.lun.ua/building-1600x1200/36276.png"
  },
  {
    "building_id": 7003,
    "name": "ЖК Delrey",
    "address": "Военный проезд, 8",
    "latitude": 50.406818769541,
    "longitude": 30.548739210247,
    "image_url": "https://img.lun.ua/building-1600x1200/36674.png"
  }
]